{
"type": "FeatureCollection",
"name": "Plotboundary",
"crs": { "type": "name", "properties": { "name": "urn:ogc:def:crs:OGC:1.3:CRS84" } },
"features": [
{ "type": "Feature", "properties": { "NAME": "NEW KALYAN MANDAP TWO FLOORS WITH WATER FACILITY ,ELECTRICITY WITH GUEST ROOS,TOILTES", "LAYER": "MANDAP", "State": "Karnataka", "Block": "Sandur", "Village": "Ubbalagundi" }, "geometry": { "type": "Point", "coordinates": [ 76.652657702534583, 15.049752504833696 ] } },
{ "type": "Feature", "properties": { "NAME": "RO WATER FILTER BUILDING,WITH 2000 LTR CAPACITY", "LAYER": "RO WATER PLANT", "State": "Karnataka", "Block": "Sandur", "Village": "Ubbalagundi" }, "geometry": { "type": "Point", "coordinates": [ 76.65309972566827, 15.04966316412677 ] } },
{ "type": "Feature", "properties": { "NAME": "NEW RANGA MANDIR BUILDING", "LAYER": "MANDAP", "State": "Karnataka", "Block": "Sandur", "Village": "Ubbalagundi" }, "geometry": { "type": "Point", "coordinates": [ 76.653328588118455, 15.049689979236055 ] } },
{ "type": "Feature", "properties": { "NAME": "NEW SAMUDAYAK BHAWAN", "LAYER": "COMMUNITY HALL", "State": "Karnataka", "Block": "Sandur", "Village": "Ubbalagundi" }, "geometry": { "type": "Point", "coordinates": [ 76.653306488144736, 15.049616446647388 ] } },
{ "type": "Feature", "properties": { "NAME": "KOLLARAMMA TEMPLE DEVELOPMENT", "LAYER": "MANDAP", "State": "Karnataka", "Block": "Sandur", "Village": "Ubbalagundi" }, "geometry": { "type": "Point", "coordinates": [ 76.653812586038399, 15.050086772287179 ] } },
{ "type": "Feature", "properties": { "NAME": "SECONDERY SCHOOL DEVELOPMENT AJAYA TEMPLE BACK SIDE", "LAYER": "SCHOOL BUILDING", "State": "Karnataka", "Block": "Sandur", "Village": "Ubbalagundi" }, "geometry": { "type": "Point", "coordinates": [ 76.655017445331964, 15.048509316693234 ] } },
{ "type": "Feature", "properties": { "NAME": "DEVAMMA TEMPLE NEW BUILDING", "LAYER": "MANDAP", "State": "Karnataka", "Block": "Sandur", "Village": "Ubbalagundi" }, "geometry": { "type": "Point", "coordinates": [ 76.653924451637053, 15.049590083025905 ] } },
{ "type": "Feature", "properties": { "NAME": "PUBLIC TOILETS WITH WATER FACILITY,AND HIGH MAST LIGHT NEAR SMASAN", "LAYER": "PUBLIC TOILETS", "State": "Karnataka", "Block": "Sandur", "Village": "Ubbalagundi" }, "geometry": { "type": "Point", "coordinates": [ 76.654291072974473, 15.051191930701558 ] } },
{ "type": "Feature", "properties": { "NAME": "PUBLIC TOILETS WITH WATER FACILITY,HIGH MAST LIGHT AT AYURVEDI HOSPITAL BECK SIDE", "LAYER": "PUBLIC TOILETS", "State": "Karnataka", "Block": "Sandur", "Village": "Ubbalagundi" }, "geometry": { "type": "Point", "coordinates": [ 76.655114555120278, 15.049150210375451 ] } },
{ "type": "Feature", "properties": { "NAME": "PUBLIC TOILETS WITH WATER FACILITY AND HIGH MAST LIGHT AT GENERAL COLONY", "LAYER": "PUBLIC TOILETS", "State": "Karnataka", "Block": "Sandur", "Village": "Ubbalagundi" }, "geometry": { "type": "Point", "coordinates": [ 76.653015835877, 15.048984034344468 ] } },
{ "type": "Feature", "properties": { "NAME": "HIGH MAST LIGHT AT KOLLARAMMA TEMPLE", "LAYER": "HIGH MUST LIGHT", "State": "Karnataka", "Block": "Sandur", "Village": "Ubbalagundi" }, "geometry": { "type": "Point", "coordinates": [ 76.653812239743274, 15.050159504794278 ] } },
{ "type": "Feature", "properties": { "NAME": "HIGH MAST LIGHT AT BASAWANNA TEMPLE", "LAYER": "HIGH MUST LIGHT", "State": "Karnataka", "Block": "Sandur", "Village": "Ubbalagundi" }, "geometry": { "type": "Point", "coordinates": [ 76.653218735336708, 15.049872521572825 ] } },
{ "type": "Feature", "properties": { "NAME": "HIGH MAST LIGHT AT DEVAMMA TEMPLE", "LAYER": "HIGH MUST LIGHT", "State": "Karnataka", "Block": "Sandur", "Village": "Ubbalagundi" }, "geometry": { "type": "Point", "coordinates": [ 76.653944223010669, 15.049616819432547 ] } },
{ "type": "Feature", "properties": { "NAME": "HIGH MAST LIGHT AT NMDC BUS STAND", "LAYER": "HIGH MUST LIGHT", "State": "Karnataka", "Block": "Sandur", "Village": "Ubbalagundi" }, "geometry": { "type": "Point", "coordinates": [ 76.656247078784645, 15.049281641543233 ] } },
{ "type": "Feature", "properties": { "NAME": "HIGH MAST LIGHT AT AYURVEDIC HOSPITAL", "LAYER": "HIGH MUST LIGHT", "State": "Karnataka", "Block": "Sandur", "Village": "Ubbalagundi" }, "geometry": { "type": "Point", "coordinates": [ 76.655016004643443, 15.049541852324822 ] } },
{ "type": "Feature", "properties": { "NAME": "HIGH MAST LIGHT AT GANDI MALIYAMM TEMPLE", "LAYER": "HIGH MUST LIGHT", "State": "Karnataka", "Block": "Sandur", "Village": "Ubbalagundi" }, "geometry": { "type": "Point", "coordinates": [ 76.654118357670754, 15.050380465953983 ] } },
{ "type": "Feature", "properties": { "NAME": "HIGH MAST LIGHT AT MOOGA BASWAPPA HOUSE", "LAYER": "HIGH MUST LIGHT", "State": "Karnataka", "Block": "Sandur", "Village": "Ubbalagundi" }, "geometry": { "type": "Point", "coordinates": [ 76.654019112610001, 15.050683349008308 ] } },
{ "type": "Feature", "properties": { "NAME": "VILLAGE WELCOME COMMON", "LAYER": "WELCOME BOARD", "State": "Karnataka", "Block": "Sandur", "Village": "Ubbalagundi" }, "geometry": { "type": "Point", "coordinates": [ 76.654034941876617, 15.050979746999161 ] } },
{ "type": "Feature", "properties": { "NAME": "RENNOVATION AT UBBALGANDI CHERUVU", "LAYER": "POND RENNOVATION", "State": "Karnataka", "Block": "Sandur", "Village": "Ubbalagundi" }, "geometry": { "type": "Point", "coordinates": [ 76.664065868407619, 15.056788032336408 ] } },
{ "type": "Feature", "properties": { "NAME": "CHECKDAM RENNOVATION AT VEERABHADRESWARA TEMPLE", "LAYER": "CHECKDAM", "State": "Karnataka", "Block": "Sandur", "Village": "Ubbalagundi" }, "geometry": { "type": "Point", "coordinates": [ 76.64932544680228, 15.04951608747165 ] } },
{ "type": "Feature", "properties": { "NAME": "LBCD-50 NOS GANDIALLA", "LAYER": "LBCD", "State": "Karnataka", "Block": "Sandur", "Village": "Ubbalagundi" }, "geometry": { "type": "Point", "coordinates": [ 76.648595858459231, 15.049231341799059 ] } },
{ "type": "Feature", "properties": { "NAME": "CHECKDAM AT BANDRAPPA LAND GANDIALLA", "LAYER": "CHECKDAM", "State": "Karnataka", "Block": "Sandur", "Village": "Ubbalagundi" }, "geometry": { "type": "Point", "coordinates": [ 76.651322195225418, 15.050589014512676 ] } },
{ "type": "Feature", "properties": { "NAME": "CHECKDAM AT ODEDH BASAWAPPA LAND GANDIALLA", "LAYER": "CHECKDAM", "State": "Karnataka", "Block": "Sandur", "Village": "Ubbalagundi" }, "geometry": { "type": "Point", "coordinates": [ 76.655045022987977, 15.052873052870419 ] } },
{ "type": "Feature", "properties": { "NAME": "CHECKDAM AT BAAVI SIDHAPPA LAND GANDIALLA", "LAYER": "CHECKDAM", "State": "Karnataka", "Block": "Sandur", "Village": "Ubbalagundi" }, "geometry": { "type": "Point", "coordinates": [ 76.657059090999695, 15.052541934788998 ] } },
{ "type": "Feature", "properties": { "NAME": "LAND LEVELING NEAR BYPASS ROAD", "LAYER": "LAND REPAIR", "State": "Karnataka", "Block": "Sandur", "Village": "Ubbalagundi" }, "geometry": { "type": "Point", "coordinates": [ 76.658233941864353, 15.052305202405565 ] } },
{ "type": "Feature", "properties": { "NAME": "LBCD-50 NO'S AT KOLAM VANKA", "LAYER": "LBCD", "State": "Karnataka", "Block": "Sandur", "Village": "Ubbalagundi" }, "geometry": { "type": "Point", "coordinates": [ 76.653761681942399, 15.030910394202003 ] } },
{ "type": "Feature", "properties": { "NAME": "CHECK DAM AT TALVAR SANMUKAPPA LAND AT KOLAM VANKA", "LAYER": "CHECKDAM", "State": "Karnataka", "Block": "Sandur", "Village": "Ubbalagundi" }, "geometry": { "type": "Point", "coordinates": [ 76.656947990235565, 15.031161493983785 ] } },
{ "type": "Feature", "properties": { "NAME": "LBCD-25 NO;S RK MINES NALA", "LAYER": "LBCD", "State": "Karnataka", "Block": "Sandur", "Village": "Ubbalagundi" }, "geometry": { "type": "Point", "coordinates": [ 76.656691630679205, 15.029208108889051 ] } },
{ "type": "Feature", "properties": { "NAME": "CHECK DAM RENNOVATION AT 117 SURVEY NUMBER", "LAYER": "CHECKDAM", "State": "Karnataka", "Block": "Sandur", "Village": "Ubbalagundi" }, "geometry": { "type": "Point", "coordinates": [ 76.66224732053044, 15.036751667587186 ] } },
{ "type": "Feature", "properties": { "NAME": "CHECKDAM AT GURSHANTH APPA", "LAYER": "CHECKDAM", "State": "Karnataka", "Block": "Sandur", "Village": "Ubbalagundi" }, "geometry": { "type": "Point", "coordinates": [ 76.665227304748583, 15.037494479706849 ] } },
{ "type": "Feature", "properties": { "NAME": "LAND LEVELING AT KOLAM VANKA", "LAYER": "LAND REPAIR", "State": "Karnataka", "Block": "Sandur", "Village": "Ubbalagundi" }, "geometry": { "type": "Point", "coordinates": [ 76.663679340616241, 15.035636964320945 ] } },
{ "type": "Feature", "properties": { "NAME": "CHECK DAM AT RK MINES NALA", "LAYER": "CHECKDAM", "State": "Karnataka", "Block": "Sandur", "Village": "Ubbalagundi" }, "geometry": { "type": "Point", "coordinates": [ 76.662543258459664, 15.033747499433499 ] } },
{ "type": "Feature", "properties": { "NAME": "CHECK DAM AT TALAVAR SHANMUKAPPA LAND", "LAYER": "CHECKDAM", "State": "Karnataka", "Block": "Sandur", "Village": "Ubbalagundi" }, "geometry": { "type": "Point", "coordinates": [ 76.666766703168918, 15.044813627314715 ] } },
{ "type": "Feature", "properties": { "NAME": "BIG CHECK DAM AT UTIYAL BAAVI", "LAYER": "CHECKDAM", "State": "Karnataka", "Block": "Sandur", "Village": "Ubbalagundi" }, "geometry": { "type": "Point", "coordinates": [ 76.661666108489229, 15.045001992532681 ] } },
{ "type": "Feature", "properties": { "NAME": "LAXMI AMMA TEMPLE DEVELOPMENT", "LAYER": "MANDAP", "State": "Karnataka", "Block": "Sandur", "Village": "Ubbalagundi" }, "geometry": { "type": "Point", "coordinates": [ 76.65872580042938, 15.049253110912574 ] } },
{ "type": "Feature", "properties": { "NAME": "DUSTBIN AT VILLAGE ENTRANCE", "LAYER": "DUSTBIN", "State": "Karnataka", "Block": "Sandur", "Village": "Ubbalagundi" }, "geometry": { "type": "Point", "coordinates": [ 76.653906072253605, 15.050724513005903 ] } },
{ "type": "Feature", "properties": { "NAME": "DUSTBIN NEAR BASWANNA TEMPLE", "LAYER": "DUSTBIN", "State": "Karnataka", "Block": "Sandur", "Village": "Ubbalagundi" }, "geometry": { "type": "Point", "coordinates": [ 76.65296697569832, 15.049678166049999 ] } },
{ "type": "Feature", "properties": { "NAME": "DRYIENG YARD AT UTIYAL NALA", "LAYER": "DRYIENG YARD", "State": "Karnataka", "Block": "Sandur", "Village": "Ubbalagundi" }, "geometry": { "type": "Point", "coordinates": [ 76.661444712132081, 15.04547686838707 ] } },
{ "type": "Feature", "properties": { "NAME": "NETWORK TOWER REQUIRED IMPORTANT", "LAYER": "MOBILE NETWORK TOWER", "State": "Karnataka", "Block": "Sandur", "Village": "Nauluti" }, "geometry": { "type": "Point", "coordinates": [ 76.632186052284155, 15.02514557086417 ] } },
{ "type": "Feature", "properties": { "NAME": "VALMIKI SAMUDHAYAK BAHAWAN", "LAYER": "COMMUNITY HALL", "State": "Karnataka", "Block": "Sandur", "Village": "Nauluti" }, "geometry": { "type": "Point", "coordinates": [ 76.630047019638937, 15.024680935671871 ] } },
{ "type": "Feature", "properties": { "NAME": "CHECK DAM AT  ALADAMARA KOLA", "LAYER": "CHECKDAM", "State": "Karnataka", "Block": "Sandur", "Village": "Nauluti" }, "geometry": { "type": "Point", "coordinates": [ 76.631678473707893, 15.021919297212985 ] } },
{ "type": "Feature", "properties": { "NAME": "LBCD-25 NO'S AT ALADAMARA KOLA", "LAYER": "LBCD", "State": "Karnataka", "Block": "Sandur", "Village": "Nauluti" }, "geometry": { "type": "Point", "coordinates": [ 76.631704694246011, 15.020849145655644 ] } },
{ "type": "Feature", "properties": { "NAME": "CHECK DAM AT RENAMMA LAND", "LAYER": "CHECKDAM", "State": "Karnataka", "Block": "Sandur", "Village": "Nauluti" }, "geometry": { "type": "Point", "coordinates": [ 76.631951566678936, 15.022694911765614 ] } },
{ "type": "Feature", "properties": { "NAME": "CHECKDAM AT MANAMARA KOLA", "LAYER": "CHECKDAM", "State": "Karnataka", "Block": "Sandur", "Village": "Nauluti" }, "geometry": { "type": "Point", "coordinates": [ 76.631698928431462, 15.025983758396309 ] } },
{ "type": "Feature", "properties": { "NAME": "CHECKDAM AT KANGUNTI", "LAYER": "CHECKDAM", "State": "Karnataka", "Block": "Sandur", "Village": "Nauluti" }, "geometry": { "type": "Point", "coordinates": [ 76.63524176843751, 15.02309263651601 ] } },
{ "type": "Feature", "properties": { "NAME": "CHECK DAM AT CHITTAKKA LAND", "LAYER": "CHECKDAM", "State": "Karnataka", "Block": "Sandur", "Village": "Nauluti" }, "geometry": { "type": "Point", "coordinates": [ 76.633936534386365, 15.024228258787483 ] } },
{ "type": "Feature", "properties": { "NAME": "CHECKDAM AT ULIGAMMA DEVI KOLA", "LAYER": "CHECKDAM", "State": "Karnataka", "Block": "Sandur", "Village": "Nauluti" }, "geometry": { "type": "Point", "coordinates": [ 76.629047036333915, 15.023571841138281 ] } },
{ "type": "Feature", "properties": { "NAME": "LBCD-10 AT ULIGAMMA KOLA", "LAYER": "LBCD", "State": "Karnataka", "Block": "Sandur", "Village": "Nauluti" }, "geometry": { "type": "Point", "coordinates": [ 76.628518898996589, 15.022792691007705 ] } },
{ "type": "Feature", "properties": { "NAME": "NEW BORE WELL REQUIRED AND WATER LIFTING TO TANK FROM SHALE ATHIRA", "LAYER": "BORE WELL", "State": "Karnataka", "Block": "Sandur", "Village": "Nauluti" }, "geometry": { "type": "Point", "coordinates": [ 76.628963828667949, 15.023696889449328 ] } },
{ "type": "Feature", "properties": { "NAME": "NEW BROREWELL REQUIRED AND WATER LIFTING TANK FROM CAMP", "LAYER": "BORE WELL", "State": "Karnataka", "Block": "Sandur", "Village": "Nauluti" }, "geometry": { "type": "Point", "coordinates": [ 76.633537153015126, 15.025175446471485 ] } },
{ "type": "Feature", "properties": { "NAME": "LAND LELEVELLING SURVEY NO-1", "LAYER": "LAND REPAIR", "State": "Karnataka", "Block": "Sandur", "Village": "Nauluti" }, "geometry": { "type": "Point", "coordinates": [ 76.623498147023966, 15.032636048555013 ] } },
{ "type": "Feature", "properties": { "NAME": "BRIDGE AT B BLOCK", "LAYER": "BRIDGE", "State": "Karnataka", "Block": "Sandur", "Village": "Kammathur" }, "geometry": { "type": "Point", "coordinates": [ 76.615538567802062, 15.011101547116612 ] } },
{ "type": "Feature", "properties": { "NAME": "PHC WITH DOCTOR AND NURSE,AMBULANCE,NEW BUILDING WITH ALL FIACILITIES", "LAYER": "PHC", "State": "Karnataka", "Block": "Sandur", "Village": "Kammathur" }, "geometry": { "type": "Point", "coordinates": [ 76.616725703344315, 15.018228247551741 ] } },
{ "type": "Feature", "properties": { "NAME": "4 NO'S HIGH MAST LIGHT AT KATASIN KOLA NEW SCHOOL", "LAYER": "HIGH MUST LIGHT", "State": "Karnataka", "Block": "Sandur", "Village": "Kammathur" }, "geometry": { "type": "Point", "coordinates": [ 76.613398288501045, 15.01846493809229 ] } },
{ "type": "Feature", "properties": { "NAME": "HIGH MAST LIGHT AT BUSTAND CHOWK", "LAYER": "HIGH MUST LIGHT", "State": "Karnataka", "Block": "Sandur", "Village": "Kammathur" }, "geometry": { "type": "Point", "coordinates": [ 76.616140094863255, 15.016580674287988 ] } },
{ "type": "Feature", "properties": { "NAME": "HIGH MAST LIGHT AT OLD FORT", "LAYER": "HIGH MUST LIGHT", "State": "Karnataka", "Block": "Sandur", "Village": "Kammathur" }, "geometry": { "type": "Point", "coordinates": [ 76.615728790482962, 15.018732087433705 ] } },
{ "type": "Feature", "properties": { "NAME": "HIGH MAST LIGHT AT OHT WATER", "LAYER": "HIGH MUST LIGHT", "State": "Karnataka", "Block": "Sandur", "Village": "Kammathur" }, "geometry": { "type": "Point", "coordinates": [ 76.614551410154334, 15.018112175777379 ] } },
{ "type": "Feature", "properties": { "NAME": "HIGH MAST LIGHT AT SC COLONY MAIN GATE", "LAYER": "HIGH MUST LIGHT", "State": "Karnataka", "Block": "Sandur", "Village": "Kammathur" }, "geometry": { "type": "Point", "coordinates": [ 76.617148453906779, 15.017577660983781 ] } },
{ "type": "Feature", "properties": { "NAME": "HIGH MAST LIGHT AT BTP PENNAPPA STREET", "LAYER": "HIGH MUST LIGHT", "State": "Karnataka", "Block": "Sandur", "Village": "Kammathur" }, "geometry": { "type": "Point", "coordinates": [ 76.615158926014061, 15.018043373897184 ] } },
{ "type": "Feature", "properties": { "NAME": "OPEN WELL WITH LIFTING TO WATER TANK", "LAYER": "WELL", "State": "Karnataka", "Block": "Sandur", "Village": "Kammathur" }, "geometry": { "type": "Point", "coordinates": [ 76.607258427034665, 15.017607737797192 ] } },
{ "type": "Feature", "properties": { "NAME": "CHECKDAM AT BAAVI KUNI", "LAYER": "CHECKDAM", "State": "Karnataka", "Block": "Sandur", "Village": "Kammathur" }, "geometry": { "type": "Point", "coordinates": [ 76.616322379075484, 15.019371072512472 ] } },
{ "type": "Feature", "properties": { "NAME": "CHECKDAM AT RAMA KOLA", "LAYER": "CHECKDAM", "State": "Karnataka", "Block": "Sandur", "Village": "Kammathur" }, "geometry": { "type": "Point", "coordinates": [ 76.618788120531306, 15.005254672654976 ] } },
{ "type": "Feature", "properties": { "NAME": "CHECKDAM AT ATTI PENTE", "LAYER": "CHECKDAM", "State": "Karnataka", "Block": "Sandur", "Village": "Kammathur" }, "geometry": { "type": "Point", "coordinates": [ 76.611139640236217, 15.005661800576425 ] } },
{ "type": "Feature", "properties": { "NAME": "PUBLIC TOILETS WITH WATER FACILITY AT KATASIN KOLA ROAD", "LAYER": "PUBLIC TOILETS", "State": "Karnataka", "Block": "Sandur", "Village": "Kammathur" }, "geometry": { "type": "Point", "coordinates": [ 76.614305711912209, 15.018592864087854 ] } },
{ "type": "Feature", "properties": { "NAME": "NEW ANGANWADI BUILDING WITH  DIGITAL LIBRARY", "LAYER": "ANGANWADI BUILDING", "State": "Karnataka", "Block": "Sandur", "Village": "Kammathur" }, "geometry": { "type": "Point", "coordinates": [ 76.614143588529515, 15.018353034930882 ] } },
{ "type": "Feature", "properties": { "NAME": "DUST BIN AT KATASIN KOLA ROAD", "LAYER": "DUST BIN", "State": "Karnataka", "Block": "Sandur", "Village": "Kammathur" }, "geometry": { "type": "Point", "coordinates": [ 76.614392276410271, 15.018489878937212 ] } },
{ "type": "Feature", "properties": { "NAME": "SMALL TANK AT KATASIN KOLA ROAD FOR DRINKING WATER TO CATTLES", "LAYER": "TANK", "State": "Karnataka", "Block": "Sandur", "Village": "Kammathur" }, "geometry": { "type": "Point", "coordinates": [ 76.614260472964204, 15.018797218013285 ] } },
{ "type": "Feature", "properties": { "NAME": "DUST BIN AT BUSTAND", "LAYER": "DUST BIN", "State": "Karnataka", "Block": "Sandur", "Village": "Kammathur" }, "geometry": { "type": "Point", "coordinates": [ 76.616079188503477, 15.016489152770564 ] } },
{ "type": "Feature", "properties": { "NAME": "DUST BIN AT PUBLIC TILETS", "LAYER": "DUST BIN", "State": "Karnataka", "Block": "Sandur", "Village": "Kammathur" }, "geometry": { "type": "Point", "coordinates": [ 76.617126305854811, 15.018737023936415 ] } },
{ "type": "Feature", "properties": { "NAME": "FRUIT PLANATATION AT KATASIN KOLA", "LAYER": "FRUIT PLANATATION", "State": "Karnataka", "Block": "Sandur", "Village": "Kammathur" }, "geometry": { "type": "Point", "coordinates": [ 76.614407669011484, 15.018821411680632 ] } },
{ "type": "Feature", "properties": { "NAME": "CATTLE WATER TANK AT MALLEMMA TEMPLE", "LAYER": "TANK", "State": "Karnataka", "Block": "Sandur", "Village": "Kammathur" }, "geometry": { "type": "Point", "coordinates": [ 76.615631236646919, 15.015195087388493 ] } },
{ "type": "Feature", "properties": { "NAME": "VIEW POINT AT KATASIN KOLA", "LAYER": "VIEW POINT", "State": "Karnataka", "Block": "Sandur", "Village": "Kammathur" }, "geometry": { "type": "Point", "coordinates": [ 76.608086181388359, 15.018573114411499 ] } },
{ "type": "Feature", "properties": { "NAME": "VIEW POINT AT RASHID PADE OPPOSITE", "LAYER": "VIEW POINT", "State": "Karnataka", "Block": "Sandur", "Village": "Kammathur" }, "geometry": { "type": "Point", "coordinates": [ 76.607131754463509, 15.02081097026492 ] } },
{ "type": "Feature", "properties": { "NAME": "HIGH MAST LIGHT AT PARK", "LAYER": "HIGH MUST LIGHT", "State": "Karnataka", "Block": "Sandur", "Village": "Kammathur" }, "geometry": { "type": "Point", "coordinates": [ 76.61619106291711, 15.014655610303398 ] } },
{ "type": "Feature", "properties": { "NAME": "COMMUNITY HALL WITH DRAMA STAGE AT OHT", "LAYER": "COMMUNITY HALL", "State": "Karnataka", "Block": "Sandur", "Village": "Kammathur" }, "geometry": { "type": "Point", "coordinates": [ 76.614464115032931, 15.018107057100549 ] } },
{ "type": "Feature", "properties": { "NAME": "PANACHAYAT BUILDING WITH DIGITALIZATION AT KATASIN KOLA ROAD", "LAYER": "PANACHAYAT BUILDING", "State": "Karnataka", "Block": "Sandur", "Village": "Kammathur" }, "geometry": { "type": "Point", "coordinates": [ 76.613480801188118, 15.018343939825462 ] } },
{ "type": "Feature", "properties": { "NAME": "BHAJANA MANDIR AT ESWAR TEMPLE", "LAYER": "MANDAP", "State": "Karnataka", "Block": "Sandur", "Village": "Kammathur" }, "geometry": { "type": "Point", "coordinates": [ 76.616237189839424, 15.018185189737004 ] } },
{ "type": "Feature", "properties": { "NAME": "SRI SHAKTI BHAWAN AT ESWAR TEMPLE", "LAYER": "MANDAP", "State": "Karnataka", "Block": "Sandur", "Village": "Kammathur" }, "geometry": { "type": "Point", "coordinates": [ 76.616179753390924, 15.018224005700223 ] } },
{ "type": "Feature", "properties": { "NAME": "VILLAGE WELCOME COMMON AT PARK", "LAYER": "WELCOME BOARD", "State": "Karnataka", "Block": "Sandur", "Village": "Kammathur" }, "geometry": { "type": "Point", "coordinates": [ 76.61622934474353, 15.014295583522687 ] } },
{ "type": "Feature", "properties": { "NAME": "CHECK DAM AT KATASIN KOLA", "LAYER": "CHECKDAM", "State": "Karnataka", "Block": "Sandur", "Village": "Kammathur" }, "geometry": { "type": "Point", "coordinates": [ 76.606818686822535, 15.017000579846695 ] } },
{ "type": "Feature", "properties": { "NAME": "MOBILE NETWORK TOWER AT KATASIN KOLA ROAD", "LAYER": "MOBILE NETWORK TOWER", "State": "Karnataka", "Block": "Sandur", "Village": "Kammathur" }, "geometry": { "type": "Point", "coordinates": [ 76.612892751309445, 15.01842406675836 ] } },
{ "type": "Feature", "properties": { "NAME": "KIOSK BANKING AT BUSTAND CHOWK", "LAYER": "KIOSK BANKING", "State": "Karnataka", "Block": "Sandur", "Village": "Kammathur" }, "geometry": { "type": "Point", "coordinates": [ 76.616077530133921, 15.016635501709601 ] } },
{ "type": "Feature", "properties": { "NAME": "MIXED FRUIT PLANATATION ENTIRE VILLAGE", "LAYER": "Unknown Point Feature", "State": "Karnataka", "Block": "Sandur", "Village": "Kammathur" }, "geometry": { "type": "Point", "coordinates": [ 76.61550404804612, 15.015742125565085 ] } },
{ "type": "Feature", "properties": { "NAME": "NEW BUS STOP AT OLD BUSSTAND CHOWK", "LAYER": "BUS SHELTER", "State": "Karnataka", "Block": "Sandur", "Village": "Kammathur" }, "geometry": { "type": "Point", "coordinates": [ 76.616180742310135, 15.016315206595843 ] } },
{ "type": "Feature", "properties": { "NAME": "MILK COLLECTION BUILDING AT BUSTATND CHOWK", "LAYER": "MILK COLLECTION CENTR", "State": "Karnataka", "Block": "Sandur", "Village": "Kammathur" }, "geometry": { "type": "Point", "coordinates": [ 76.616020329973679, 15.01667934815436 ] } },
{ "type": "Feature", "properties": { "NAME": "VETARNARY HOSPITAL NEAR PARK", "LAYER": "VETARNARY HOSPITAL", "State": "Karnataka", "Block": "Sandur", "Village": "Kammathur" }, "geometry": { "type": "Point", "coordinates": [ 76.616184630044387, 15.015066982159309 ] } },
{ "type": "Feature", "properties": { "NAME": "HIGH MAST LIGHT AT MALLEMMA TEMPLE", "LAYER": "HIGH MUST LIGHT", "State": "Karnataka", "Block": "Sandur", "Village": "Kammathur" }, "geometry": { "type": "Point", "coordinates": [ 76.585428587835892, 15.006220983383509 ] } },
{ "type": "Feature", "properties": { "NAME": "MALLEMMA TEMPLE DEVELOPMENT", "LAYER": "MANDAP", "State": "Karnataka", "Block": "Sandur", "Village": "Kammathur" }, "geometry": { "type": "Point", "coordinates": [ 76.585182231380941, 15.006187755996612 ] } },
{ "type": "Feature", "properties": { "NAME": "HIGH MAST LIGHT AT MALLEMMA TEMPLE NEAR KAMTHUR", "LAYER": "HIGH MUST LIGHT", "State": "Karnataka", "Block": "Sandur", "Village": "Kammathur" }, "geometry": { "type": "Point", "coordinates": [ 76.615387367099828, 15.014999874535382 ] } },
{ "type": "Feature", "properties": { "NAME": "BUS SHELTER  AT KUMARSWAMY TEMPLE", "LAYER": "BUS SHELTER", "State": "Karnataka", "Block": "Sandur", "Village": "Kammathur" }, "geometry": { "type": "Point", "coordinates": [ 76.563283683395255, 15.013744968347744 ] } },
{ "type": "Feature", "properties": { "NAME": "HIGH MAST LIGHT AT KUMAR SWAMY TEMPLE", "LAYER": "HIGH MUST LIGHT", "State": "Karnataka", "Block": "Sandur", "Village": "Kammathur" }, "geometry": { "type": "Point", "coordinates": [ 76.563252055429658, 15.013345908179291 ] } },
{ "type": "Feature", "properties": { "NAME": "TOURISM DEVELOPMENT AT KATASINI KOLA", "LAYER": "TOURISM DEVELOPMENT", "State": "Karnataka", "Block": "Sandur", "Village": "Kammathur" }, "geometry": { "type": "Point", "coordinates": [ 76.607000327641515, 15.017814552205953 ] } },
{ "type": "Feature", "properties": { "NAME": "CHECKDAM AT KATASINI KOLA", "LAYER": "CHECKDAM", "State": "Karnataka", "Block": "Sandur", "Village": "Kammathur" }, "geometry": { "type": "Point", "coordinates": [ 76.605902447499332, 15.017972287343978 ] } },
{ "type": "Feature", "properties": { "NAME": "SC SAMUDHAYAK BAWAN NEAR DURGAMMA TEMPLE", "LAYER": "COMMUNITY HALL", "State": "Karnataka", "Block": "Sandur", "Village": "Kammathur" }, "geometry": { "type": "Point", "coordinates": [ 76.616853168622583, 15.018658530934388 ] } },
{ "type": "Feature", "properties": { "NAME": "ST SAMUDHAYAK BHAWAN AT OHT", "LAYER": "COMMUNITY HALL", "State": "Karnataka", "Block": "Sandur", "Village": "Kammathur" }, "geometry": { "type": "Point", "coordinates": [ 76.614380451238688, 15.018190373904739 ] } },
{ "type": "Feature", "properties": { "NAME": "SMALL WATER TANK AT SMASAN", "LAYER": "TANK", "State": "Karnataka", "Block": "Sandur", "Village": "Kammathur" }, "geometry": { "type": "Point", "coordinates": [ 76.617204835322923, 15.019196178311528 ] } },
{ "type": "Feature", "properties": { "NAME": "MARKET COMPLEX AT BUSSTAND CHOWK", "LAYER": "MARKET COMPLEX", "State": "Karnataka", "Block": "Sandur", "Village": "Kammathur" }, "geometry": { "type": "Point", "coordinates": [ 76.616186249273028, 15.016625512599802 ] } },
{ "type": "Feature", "properties": { "NAME": "RO WATER PLANT AT MALLEMMA TEMPLE", "LAYER": "RO WATER PLANT", "State": "Karnataka", "Block": "Sandur", "Village": "Kammathur" }, "geometry": { "type": "Point", "coordinates": [ 76.61550167520636, 15.015176288334397 ] } },
{ "type": "Feature", "properties": { "NAME": "SOLAR WATER TANK AT BHIMA MANGU HOUSE", "LAYER": "SOLAR WATERTANK", "State": "Chattisgarh", "Block": "Dantewada", "Village": "Badebacheli" }, "geometry": { "type": "Point", "coordinates": [ 81.269016994959941, 18.702246941305901 ] } },
{ "type": "Feature", "properties": { "NAME": "BRIDGE AT BAINSA MUNDA", "LAYER": "BRIDGE", "State": "Chattisgarh", "Block": "Dantewada", "Village": "Badebacheli" }, "geometry": { "type": "Point", "coordinates": [ 81.279135947174694, 18.683497853551614 ] } },
{ "type": "Feature", "properties": { "NAME": "CULVERT AT PODIYA HUNGA KETH", "LAYER": "CULVERT", "State": "Chattisgarh", "Block": "Dantewada", "Village": "Badebacheli" }, "geometry": { "type": "Point", "coordinates": [ 81.268988642693216, 18.71325762239529 ] } },
{ "type": "Feature", "properties": { "NAME": "SOLAR WATER TANK AT SOMARU MANDAVI HOUSE PANDU PARA", "LAYER": "SOLAR WATERTANK", "State": "Chattisgarh", "Block": "Dantewada", "Village": "Badebacheli" }, "geometry": { "type": "Point", "coordinates": [ 81.261391888368294, 18.693697668872709 ] } },
{ "type": "Feature", "properties": { "NAME": "HIGH MAST LIGHT AT BUDHU HOUSE CHOWK PANDU PARA", "LAYER": "HIGH MUST LIGHT", "State": "Chattisgarh", "Block": "Dantewada", "Village": "Badebacheli" }, "geometry": { "type": "Point", "coordinates": [ 81.262440031803123, 18.693227033775539 ] } },
{ "type": "Feature", "properties": { "NAME": "HIGH MAST LIGHT AT SAMUDAYAK BHAWAN PANDU PARA", "LAYER": "HIGH MUST LIGHT", "State": "Chattisgarh", "Block": "Dantewada", "Village": "Badebacheli" }, "geometry": { "type": "Point", "coordinates": [ 81.262024122509715, 18.696543629231922 ] } },
{ "type": "Feature", "properties": { "NAME": "SAMUDAYAK BHWAN DEVELOPMENT AT PANDU PARA", "LAYER": "COMMUNITY HALL", "State": "Chattisgarh", "Block": "Dantewada", "Village": "Badebacheli" }, "geometry": { "type": "Point", "coordinates": [ 81.262156591773177, 18.696212626448951 ] } },
{ "type": "Feature", "properties": { "NAME": "WHS AT RAJU TAMO LAND LATI PARA", "LAYER": "WHS", "State": "Chattisgarh", "Block": "Dantewada", "Village": "Badebacheli" }, "geometry": { "type": "Point", "coordinates": [ 81.255078574110541, 18.690680351960165 ] } },
{ "type": "Feature", "properties": { "NAME": "CHECKDAM AT DAMO KUYYAR", "LAYER": "CHECKDAM", "State": "Chattisgarh", "Block": "Dantewada", "Village": "Badebacheli" }, "geometry": { "type": "Point", "coordinates": [ 81.261034144180712, 18.68933431477339 ] } },
{ "type": "Feature", "properties": { "NAME": "HIGH MAST LIGHT AT SANKAR MADAVI HOUSE", "LAYER": "HIGH MUST LIGHT", "State": "Chattisgarh", "Block": "Dantewada", "Village": "Badebacheli" }, "geometry": { "type": "Point", "coordinates": [ 81.258574921865403, 18.694728106995271 ] } },
{ "type": "Feature", "properties": { "NAME": "PLAY GROUND DEVELOPMENT AT LATIPARA", "LAYER": "PLAY GROUND", "State": "Chattisgarh", "Block": "Dantewada", "Village": "Badebacheli" }, "geometry": { "type": "Point", "coordinates": [ 81.258980334257103, 18.691538946411573 ] } },
{ "type": "Feature", "properties": { "NAME": "HIGH MAST LIGHT NEAR PLAYGROUND LATI PARA", "LAYER": "HIGH MUST LIGHT", "State": "Chattisgarh", "Block": "Dantewada", "Village": "Badebacheli" }, "geometry": { "type": "Point", "coordinates": [ 81.258926894422274, 18.692150899460859 ] } },
{ "type": "Feature", "properties": { "NAME": "CHECK DAM AT GOVIND KUNJAM KETH", "LAYER": "CHECKDAM", "State": "Chattisgarh", "Block": "Dantewada", "Village": "Badebacheli" }, "geometry": { "type": "Point", "coordinates": [ 81.271574760604423, 18.707076863587069 ] } },
{ "type": "Feature", "properties": { "NAME": "CHECKDAM AT KAMALA GHAT", "LAYER": "CHECKDAM", "State": "Chattisgarh", "Block": "Dantewada", "Village": "Badebacheli" }, "geometry": { "type": "Point", "coordinates": [ 81.270030991655346, 18.71120865185987 ] } },
{ "type": "Feature", "properties": { "NAME": "HIGH MAST LIGHT AT GIRLS SCHOOL CHALKI PARA", "LAYER": "HIGH MUST LIGHT", "State": "Chattisgarh", "Block": "Dantewada", "Village": "Badebacheli" }, "geometry": { "type": "Point", "coordinates": [ 81.270783149477523, 18.690799488072109 ] } },
{ "type": "Feature", "properties": { "NAME": "HIGH MAST LIGHT AT BRROKS FARMHOUSE CHOWK", "LAYER": "HIGH MUST LIGHT", "State": "Chattisgarh", "Block": "Dantewada", "Village": "Badebacheli" }, "geometry": { "type": "Point", "coordinates": [ 81.270739174049424, 18.688488779595364 ] } },
{ "type": "Feature", "properties": { "NAME": "HIGH MAST LIGHT AT MATHA GUDI CHALKI PARA", "LAYER": "HIGH MUST LIGHT", "State": "Chattisgarh", "Block": "Dantewada", "Village": "Badebacheli" }, "geometry": { "type": "Point", "coordinates": [ 81.270612242633817, 18.687290853232209 ] } },
{ "type": "Feature", "properties": { "NAME": "HIGH MAST LIGHT AT SAMPATH RANA HOUSE CHOWK", "LAYER": "HIGH MUST LIGHT", "State": "Chattisgarh", "Block": "Dantewada", "Village": "Badebacheli" }, "geometry": { "type": "Point", "coordinates": [ 81.268680415192321, 18.68694850318375 ] } },
{ "type": "Feature", "properties": { "NAME": "HIGH MAST LIGHT AT NMDC DAIRY CHOWK", "LAYER": "HIGH MUST LIGHT", "State": "Chattisgarh", "Block": "Dantewada", "Village": "Badebacheli" }, "geometry": { "type": "Point", "coordinates": [ 81.268110083256019, 18.683364507040071 ] } },
{ "type": "Feature", "properties": { "NAME": "HIGH MAST LIGHT AT CHAMRU NAG HOUSE CHOWK DURKA PARA", "LAYER": "HIGH MUST LIGHT", "State": "Chattisgarh", "Block": "Dantewada", "Village": "Badebacheli" }, "geometry": { "type": "Point", "coordinates": [ 81.268741682040712, 18.684534191148526 ] } },
{ "type": "Feature", "properties": { "NAME": "SOLAR WATER TANK AT KISHAN NAG HOUSE DURKA PARA", "LAYER": "SOLAR WATERTANK", "State": "Chattisgarh", "Block": "Dantewada", "Village": "Badebacheli" }, "geometry": { "type": "Point", "coordinates": [ 81.268778448655752, 18.68394913788249 ] } },
{ "type": "Feature", "properties": { "NAME": "SOLAR WATER TANK AT SUKHRAM RANA HOUSE DURKA PARA", "LAYER": "SOLAR WATERTANK", "State": "Chattisgarh", "Block": "Dantewada", "Village": "Badebacheli" }, "geometry": { "type": "Point", "coordinates": [ 81.268238357927004, 18.68479600601891 ] } },
{ "type": "Feature", "properties": { "NAME": "NEW BORE WELL WITH SOLAR TANK AT ANGAWADI CHALKI PARA", "LAYER": "SOLAR WATERTANK", "State": "Chattisgarh", "Block": "Dantewada", "Village": "Badebacheli" }, "geometry": { "type": "Point", "coordinates": [ 81.268313169137187, 18.686012845023171 ] } },
{ "type": "Feature", "properties": { "NAME": "CULVERT AT RAJESH NAG HOUSE CHALKI PARA", "LAYER": "CULVERT", "State": "Chattisgarh", "Block": "Dantewada", "Village": "Badebacheli" }, "geometry": { "type": "Point", "coordinates": [ 81.268437611969475, 18.686448785449993 ] } },
{ "type": "Feature", "properties": { "NAME": "CULVERT AT RANJITH NAG HOUSE", "LAYER": "CULVERT", "State": "Chattisgarh", "Block": "Dantewada", "Village": "Badebacheli" }, "geometry": { "type": "Point", "coordinates": [ 81.269334164191477, 18.688021716910661 ] } },
{ "type": "Feature", "properties": { "NAME": "CULVERT NEAR BY AJAY NAG HOUSE", "LAYER": "CULVERT", "State": "Chattisgarh", "Block": "Dantewada", "Village": "Badebacheli" }, "geometry": { "type": "Point", "coordinates": [ 81.26893107482951, 18.687551513750165 ] } },
{ "type": "Feature", "properties": { "NAME": "CHECK DAM WITH IRRIGATION CANAL NEAR NMDC DAIRY", "LAYER": "CHECKDAM", "State": "Chattisgarh", "Block": "Dantewada", "Village": "Badebacheli" }, "geometry": { "type": "Point", "coordinates": [ 81.26572772443042, 18.682813219708279 ] } },
{ "type": "Feature", "properties": { "NAME": "WHS AT GOAT KARIYA LATA CHALKI PARA", "LAYER": "WHS", "State": "Chattisgarh", "Block": "Dantewada", "Village": "Badebacheli" }, "geometry": { "type": "Point", "coordinates": [ 81.271181991875579, 18.677741666379113 ] } },
{ "type": "Feature", "properties": { "NAME": "CHECK DAM AT DARIAB SINGH HOUSE AT MAJHI PARA", "LAYER": "CHECKDAM", "State": "Chattisgarh", "Block": "Dantewada", "Village": "Badebacheli" }, "geometry": { "type": "Point", "coordinates": [ 81.271778273676489, 18.695586807116605 ] } },
{ "type": "Feature", "properties": { "NAME": "HIGH MAST LIGHT AT GADHI GUDI", "LAYER": "HIGH MUST LIGHT", "State": "Chattisgarh", "Block": "Dantewada", "Village": "Badebacheli" }, "geometry": { "type": "Point", "coordinates": [ 81.273131092561641, 18.701095298024235 ] } },
{ "type": "Feature", "properties": { "NAME": "BRIDGE AT MOKA KUYYAR", "LAYER": "BRIDGE", "State": "Chattisgarh", "Block": "Dantewada", "Village": "Badebacheli" }, "geometry": { "type": "Point", "coordinates": [ 81.26580170696856, 18.711435016729162 ] } },
{ "type": "Feature", "properties": { "NAME": "CULVERT AT MANGU HIDMA KETH", "LAYER": "CULVERT", "State": "Chattisgarh", "Block": "Dantewada", "Village": "Badebacheli" }, "geometry": { "type": "Point", "coordinates": [ 81.26082011300619, 18.705205340285268 ] } },
{ "type": "Feature", "properties": { "NAME": "BRIDGE AT KAMALA GHAT", "LAYER": "BRIDGE", "State": "Chattisgarh", "Block": "Dantewada", "Village": "Badebacheli" }, "geometry": { "type": "Point", "coordinates": [ 81.27054080243218, 18.712602494017148 ] } },
{ "type": "Feature", "properties": { "NAME": "CULVERT AT ARJU VARI KETH", "LAYER": "CULVERT", "State": "Chattisgarh", "Block": "Dantewada", "Village": "Badebacheli" }, "geometry": { "type": "Point", "coordinates": [ 81.265599758432501, 18.704480844503617 ] } },
{ "type": "Feature", "properties": { "NAME": "BRIDGE AT LAL KUYYAR", "LAYER": "BRIDGE", "State": "Chattisgarh", "Block": "Dantewada", "Village": "Badebacheli" }, "geometry": { "type": "Point", "coordinates": [ 81.267094257872387, 18.69929780521958 ] } },
{ "type": "Feature", "properties": { "NAME": "SOLAR TANK AT BHIMA MANDAVI HOUSE", "LAYER": "SOLAR WATERTANK", "State": "Chattisgarh", "Block": "Dantewada", "Village": "Badebacheli" }, "geometry": { "type": "Point", "coordinates": [ 81.264759254062909, 18.700341472252362 ] } },
{ "type": "Feature", "properties": { "NAME": "HIGH MAST LIGHT AT RAJU MANDAVI HOUSE", "LAYER": "HIGH MUST LIGHT", "State": "Chattisgarh", "Block": "Dantewada", "Village": "Badebacheli" }, "geometry": { "type": "Point", "coordinates": [ 81.265915893773951, 18.700275702206021 ] } },
{ "type": "Feature", "properties": { "NAME": "HIGH MAST LIGHT AT DURUA HOUSE", "LAYER": "HIGH MUST LIGHT", "State": "Chattisgarh", "Block": "Dantewada", "Village": "Badebacheli" }, "geometry": { "type": "Point", "coordinates": [ 81.26485417079769, 18.701544165128119 ] } },
{ "type": "Feature", "properties": { "NAME": "HIGH MAST LIGHT PRIMARY SCHOOL BADEPARA", "LAYER": "HIGH MUST LIGHT", "State": "Chattisgarh", "Block": "Dantewada", "Village": "Badebacheli" }, "geometry": { "type": "Point", "coordinates": [ 81.266998938076156, 18.703108440343748 ] } },
{ "type": "Feature", "properties": { "NAME": "HIGH MAST LIGHT AT MALL HOUSE", "LAYER": "HIGH MUST LIGHT", "State": "Chattisgarh", "Block": "Dantewada", "Village": "Badebacheli" }, "geometry": { "type": "Point", "coordinates": [ 81.269523956960597, 18.701584203431 ] } },
{ "type": "Feature", "properties": { "NAME": "HIGH MAST LIGHT AT JUGAL ITA BATTI", "LAYER": "HIGH MUST LIGHT", "State": "Chattisgarh", "Block": "Dantewada", "Village": "Badebacheli" }, "geometry": { "type": "Point", "coordinates": [ 81.262158674018011, 18.700369363662531 ] } },
{ "type": "Feature", "properties": { "NAME": "SOLAR WATER TANK AT ANGANWADI BADE PARA", "LAYER": "SOLAR WATERTANK", "State": "Chattisgarh", "Block": "Dantewada", "Village": "Badebacheli" }, "geometry": { "type": "Point", "coordinates": [ 81.26688797381783, 18.703359263159513 ] } },
{ "type": "Feature", "properties": { "NAME": "HIGH MAST LIGHT AT VIJA KADTHI HOUSE", "LAYER": "HIGH MUST LIGHT", "State": "Chattisgarh", "Block": "Dantewada", "Village": "Badebacheli" }, "geometry": { "type": "Point", "coordinates": [ 81.257433802288048, 18.700516079733756 ] } },
{ "type": "Feature", "properties": { "NAME": "HIGH MAST LIGHT AT NANGU PARA NEAR NAGAR PALIKA", "LAYER": "HIGH MUST LIGHT", "State": "Chattisgarh", "Block": "Dantewada", "Village": "Badebacheli" }, "geometry": { "type": "Point", "coordinates": [ 81.254302494783019, 18.697289134704025 ] } },
{ "type": "Feature", "properties": { "NAME": "CHECKDAM REAPIR AT URA SOMU KETH", "LAYER": "CHECKDAM", "State": "Chattisgarh", "Block": "Dantewada", "Village": "Badebacheli" }, "geometry": { "type": "Point", "coordinates": [ 81.256490982017226, 18.700441297816489 ] } },
{ "type": "Feature", "properties": { "NAME": "CHECK DAM AT MOTU AYATU KETH", "LAYER": "CHECKDAM", "State": "Chattisgarh", "Block": "Dantewada", "Village": "Badebacheli" }, "geometry": { "type": "Point", "coordinates": [ 81.269520249040781, 18.705905112356319 ] } },
{ "type": "Feature", "properties": { "NAME": "CHECK DAM AT LAXMAN HUNGA KETH", "LAYER": "CHECKDAM", "State": "Chattisgarh", "Block": "Dantewada", "Village": "Badebacheli" }, "geometry": { "type": "Point", "coordinates": [ 81.264097116038101, 18.704902484264927 ] } },
{ "type": "Feature", "properties": { "NAME": "WHS AT DOWNSIDE OF INDIAN OIL PETRROL PUMP DASARTH PARA", "LAYER": "WHS", "State": "Chattisgarh", "Block": "Dantewada", "Village": "Badebacheli" }, "geometry": { "type": "Point", "coordinates": [ 81.262367531750684, 18.713756196192829 ] } },
{ "type": "Feature", "properties": { "NAME": "CHECK DAM AT MUNDA BUDHU KETH", "LAYER": "CHECKDAM", "State": "Chattisgarh", "Block": "Dantewada", "Village": "Badebacheli" }, "geometry": { "type": "Point", "coordinates": [ 81.258714580622936, 18.712945725923461 ] } },
{ "type": "Feature", "properties": { "NAME": "WHS AT TADI HILKA KETH", "LAYER": "WHS", "State": "Chattisgarh", "Block": "Dantewada", "Village": "Badebacheli" }, "geometry": { "type": "Point", "coordinates": [ 81.266147853812114, 18.707761198987249 ] } },
{ "type": "Feature", "properties": { "NAME": "SOLAR WATER TANK AT RAJU HUNDA HOUSE", "LAYER": "SOLAR WATERTANK", "State": "Chattisgarh", "Block": "Dantewada", "Village": "Badebacheli" }, "geometry": { "type": "Point", "coordinates": [ 81.274285175466375, 18.708870281880426 ] } },
{ "type": "Feature", "properties": { "NAME": "HIGH MAST LIGHT AT VISHAL KARAMA KUA PARA", "LAYER": "HIGH MUST LIGHT", "State": "Chattisgarh", "Block": "Dantewada", "Village": "Badebacheli" }, "geometry": { "type": "Point", "coordinates": [ 81.274576355724278, 18.710009799551717 ] } },
{ "type": "Feature", "properties": { "NAME": "HIGH MAST LIGHT AT BHIMSEN HOUSE KUA PARA", "LAYER": "HIGH MUST LIGHT", "State": "Chattisgarh", "Block": "Dantewada", "Village": "Badebacheli" }, "geometry": { "type": "Point", "coordinates": [ 81.276820697467627, 18.711834989352774 ] } },
{ "type": "Feature", "properties": { "NAME": "SOLAR WATER TANK AT BHIMSEN HOUSE AT KUA PARA", "LAYER": "SOLAR WATERTANK", "State": "Chattisgarh", "Block": "Dantewada", "Village": "Badebacheli" }, "geometry": { "type": "Point", "coordinates": [ 81.276882577741006, 18.711909845197454 ] } },
{ "type": "Feature", "properties": { "NAME": "HIGH MAST LIGHT AT LAXMAN DHULA HOUSE", "LAYER": "HIGH MUST LIGHT", "State": "Chattisgarh", "Block": "Dantewada", "Village": "Badebacheli" }, "geometry": { "type": "Point", "coordinates": [ 81.256011772620852, 18.715830005556651 ] } },
{ "type": "Feature", "properties": { "NAME": "HIGH MAST LIGHT AT MANDIR DASRATH PARA NO ELECTRICTY OF SOME HOUSE HOLDS", "LAYER": "HIGH MUST LIGHT", "State": "Chattisgarh", "Block": "Dantewada", "Village": "Badebacheli" }, "geometry": { "type": "Point", "coordinates": [ 81.25589094500593, 18.715015985164499 ] } },
{ "type": "Feature", "properties": { "NAME": "HIGH MAST LIGHT AT VEES GUDEM", "LAYER": "HIGH MUST LIGHT", "State": "Chattisgarh", "Block": "Dantewada", "Village": "Badebacheli" }, "geometry": { "type": "Point", "coordinates": [ 81.27672285907218, 18.7038878622478 ] } },
{ "type": "Feature", "properties": { "NAME": "SOLAR WATER TANK AT VEES GUDEM", "LAYER": "SOLAR WATERTANK", "State": "Chattisgarh", "Block": "Dantewada", "Village": "Badebacheli" }, "geometry": { "type": "Point", "coordinates": [ 81.277148748104977, 18.704160782352865 ] } },
{ "type": "Feature", "properties": { "NAME": "ANGANWADI BUILDING REPAIR AT DASRATH PARA", "LAYER": "ANGANWADI BUILDING", "State": "Chattisgarh", "Block": "Dantewada", "Village": "Badebacheli" }, "geometry": { "type": "Point", "coordinates": [ 81.257660632622759, 18.715290426299887 ] } },
{ "type": "Feature", "properties": { "NAME": "SOLAR WATER TANK AT AJAY NAG HUSE CHALKI PARA", "LAYER": "SOLAR WATERTANK", "State": "Chattisgarh", "Block": "Dantewada", "Village": "Badebacheli" }, "geometry": { "type": "Point", "coordinates": [ 81.269320947916825, 18.687230971905848 ] } },
{ "type": "Feature", "properties": { "NAME": "SOLAR WATER TANK AT BRROKS FARM HOUSE CHOWK CHALKI PARA", "LAYER": "SOLAR WATERTANK", "State": "Chattisgarh", "Block": "Dantewada", "Village": "Badebacheli" }, "geometry": { "type": "Point", "coordinates": [ 81.270782592875364, 18.688392228964496 ] } },
{ "type": "Feature", "properties": { "NAME": "BOUNDARY WITH SAFE GRILL,DOME SHED,MATHA GUDI DEVELOPMENT AT CHALKI PARA", "LAYER": "DOME SHED", "State": "Chattisgarh", "Block": "Dantewada", "Village": "Badebacheli" }, "geometry": { "type": "Point", "coordinates": [ 81.270643457915426, 18.68719188109997 ] } },
{ "type": "Feature", "properties": { "NAME": "SOLAR WATER TANK AT GIRLS SCHOOL CHALK PARA", "LAYER": "SOLAR WATERTANK", "State": "Chattisgarh", "Block": "Dantewada", "Village": "Badebacheli" }, "geometry": { "type": "Point", "coordinates": [ 81.270851049901012, 18.690704619827155 ] } },
{ "type": "Feature", "properties": { "NAME": "PRIMERY SCHOOL NEW  BUILDING AND BOUNDARY WITH MODELISATION CHALK PARA", "LAYER": "PRIMARY SCHOOL", "State": "Chattisgarh", "Block": "Dantewada", "Village": "Badebacheli" }, "geometry": { "type": "Point", "coordinates": [ 81.270667185352025, 18.690692110856105 ] } },
{ "type": "Feature", "properties": { "NAME": "HIGH MAST LIGHT AT RAJAMAN HOUSE", "LAYER": "HIGH MUST LIGHT", "State": "Chattisgarh", "Block": "Dantewada", "Village": "Badebacheli" }, "geometry": { "type": "Point", "coordinates": [ 81.27330661178415, 18.69624388826529 ] } },
{ "type": "Feature", "properties": { "NAME": "HIGH MAST LIGHT AT TILAK HOUSE CHOWK MAJHI PARA", "LAYER": "HIGH MUST LIGHT", "State": "Chattisgarh", "Block": "Dantewada", "Village": "Badebacheli" }, "geometry": { "type": "Point", "coordinates": [ 81.272876553656857, 18.693845257227835 ] } },
{ "type": "Feature", "properties": { "NAME": "SOLAR WATER TANK AT SUKHRAM HOUSE MAJHI PARA", "LAYER": "SOLAR WATERTANK", "State": "Chattisgarh", "Block": "Dantewada", "Village": "Badebacheli" }, "geometry": { "type": "Point", "coordinates": [ 81.273053448277764, 18.69355137837923 ] } },
{ "type": "Feature", "properties": { "NAME": "SAMUDAYAK BAWAN WITH DIGITALISATION  AT AMAR HOUSE", "LAYER": "COMMUNITY HALL", "State": "Chattisgarh", "Block": "Dantewada", "Village": "Badebacheli" }, "geometry": { "type": "Point", "coordinates": [ 81.2730074083495, 18.694001403688773 ] } },
{ "type": "Feature", "properties": { "NAME": "SOLAR WATER TANK AT SONU HOUSE PATEL PARA", "LAYER": "SOLAR WATERTANK", "State": "Chattisgarh", "Block": "Dantewada", "Village": "Badebacheli" }, "geometry": { "type": "Point", "coordinates": [ 81.276069593745632, 18.69925849192045 ] } },
{ "type": "Feature", "properties": { "NAME": "CULVERT AT GIRLS ASHRAM PATEL PARA", "LAYER": "CULVERT", "State": "Chattisgarh", "Block": "Dantewada", "Village": "Badebacheli" }, "geometry": { "type": "Point", "coordinates": [ 81.276186555806106, 18.69819044752499 ] } },
{ "type": "Feature", "properties": { "NAME": "CULVERT AT SANKAR NAG KETH DUMA PARA", "LAYER": "CULVERT", "State": "Chattisgarh", "Block": "Dantewada", "Village": "Badebacheli" }, "geometry": { "type": "Point", "coordinates": [ 81.281696759606319, 18.683578094416436 ] } },
{ "type": "Feature", "properties": { "NAME": "BORE WELL WITH SOLAR TANK AT DUMAPARA NO TUBEWELL AVAILABLE IN THIS PARA", "LAYER": "SOLAR WATERTANK", "State": "Chattisgarh", "Block": "Dantewada", "Village": "Badebacheli" }, "geometry": { "type": "Point", "coordinates": [ 81.282052908777985, 18.682108981629433 ] } },
{ "type": "Feature", "properties": { "NAME": "HIGH MAST LIGHT AT SAKARAM NAG HOUSE", "LAYER": "HIGH MUST LIGHT", "State": "Chattisgarh", "Block": "Dantewada", "Village": "Badebacheli" }, "geometry": { "type": "Point", "coordinates": [ 81.282202294290215, 18.682249524443041 ] } },
{ "type": "Feature", "properties": { "NAME": "WHS AT BAINSA MUNDA", "LAYER": "WHS", "State": "Chattisgarh", "Block": "Dantewada", "Village": "Badebacheli" }, "geometry": { "type": "Point", "coordinates": [ 81.279531323555176, 18.682807049189403 ] } },
{ "type": "Feature", "properties": { "NAME": "WHS AT BAINSAMUNDA UPER SIDE", "LAYER": "WHS", "State": "Chattisgarh", "Block": "Dantewada", "Village": "Badebacheli" }, "geometry": { "type": "Point", "coordinates": [ 81.277675712994451, 18.68103765871572 ] } },
{ "type": "Feature", "properties": { "NAME": "WHS AT SANTHOSH KUNJAM KETH", "LAYER": "WHS", "State": "Chattisgarh", "Block": "Dantewada", "Village": "Badebacheli" }, "geometry": { "type": "Point", "coordinates": [ 81.287996640100815, 18.684375750618752 ] } },
{ "type": "Feature", "properties": { "NAME": "CHECK DAM AT AMA KETH", "LAYER": "CHECKDAM", "State": "Chattisgarh", "Block": "Dantewada", "Village": "Badebacheli" }, "geometry": { "type": "Point", "coordinates": [ 81.284905542615761, 18.679668681105067 ] } },
{ "type": "Feature", "properties": { "NAME": "TUBE WELL AT ANGANWADI KUMARA PARA", "LAYER": "SOLAR WATERTANK", "State": "Chattisgarh", "Block": "Dantewada", "Village": "Badebacheli" }, "geometry": { "type": "Point", "coordinates": [ 81.275712791445528, 18.686835552170294 ] } },
{ "type": "Feature", "properties": { "NAME": "HIGH MAST LIGHT AT RAMSAI RANA HOUSE", "LAYER": "HIGH MUST LIGHT", "State": "Chattisgarh", "Block": "Dantewada", "Village": "Badebacheli" }, "geometry": { "type": "Point", "coordinates": [ 81.275257856334534, 18.687053050649951 ] } },
{ "type": "Feature", "properties": { "NAME": "HIGH MAST LIGHT AT BOLENATH MANDIR ,KUMAR PARA", "LAYER": "HIGH MUST LIGHT", "State": "Chattisgarh", "Block": "Dantewada", "Village": "Badebacheli" }, "geometry": { "type": "Point", "coordinates": [ 81.274952244683533, 18.685146586111276 ] } },
{ "type": "Feature", "properties": { "NAME": "TUBEWELL WITH SOLAR TANK AT BOLENATH MANDIR ,KUMAR PARA", "LAYER": "SOLAR WATERTANK", "State": "Chattisgarh", "Block": "Dantewada", "Village": "Badebacheli" }, "geometry": { "type": "Point", "coordinates": [ 81.275181338721268, 18.685055323219046 ] } },
{ "type": "Feature", "properties": { "NAME": "COMMUNITY HALL WITH BOUNDARY AND TIOLETS  AT KUMAR PARA", "LAYER": "COMMUNITY HALL", "State": "Chattisgarh", "Block": "Dantewada", "Village": "Badebacheli" }, "geometry": { "type": "Point", "coordinates": [ 81.275820282631528, 18.68708629282035 ] } },
{ "type": "Feature", "properties": { "NAME": "MANDAP AT DUMA PARA", "LAYER": "MANDAP", "State": "Chattisgarh", "Block": "Dantewada", "Village": "Badebacheli" }, "geometry": { "type": "Point", "coordinates": [ 81.282162302153679, 18.68213353501995 ] } },
{ "type": "Feature", "properties": { "NAME": "CULVERT AT LALA RANA HOUSE KUMAR PARA", "LAYER": "CULVERT", "State": "Chattisgarh", "Block": "Dantewada", "Village": "Badebacheli" }, "geometry": { "type": "Point", "coordinates": [ 81.275227625017394, 18.686385406365044 ] } },
{ "type": "Feature", "properties": { "NAME": "ANGANWADI NEW BUILDING  AND TOILETS,AT KAYAPARA", "LAYER": "ANGANWADI BUILDING", "State": "Chattisgarh", "Block": "Dantewada", "Village": "Badebacheli" }, "geometry": { "type": "Point", "coordinates": [ 81.283684774192778, 18.685687206373068 ] } },
{ "type": "Feature", "properties": { "NAME": "TUBE WELL WITH SOLAR TANK AT ANGANWADI,KAYA PARA", "LAYER": "SOLAR WATERTANK", "State": "Chattisgarh", "Block": "Dantewada", "Village": "Badebacheli" }, "geometry": { "type": "Point", "coordinates": [ 81.283665426454661, 18.685623189902945 ] } },
{ "type": "Feature", "properties": { "NAME": "HIGH MAST LIGHT AT KUNJAM CHOWK", "LAYER": "HIGH MUST LIGHT", "State": "Chattisgarh", "Block": "Dantewada", "Village": "Badebacheli" }, "geometry": { "type": "Point", "coordinates": [ 81.284282071154848, 18.685144762197019 ] } },
{ "type": "Feature", "properties": { "NAME": "HIGH MAST LIGHT AT HUNGA KUNJAM HOUSE", "LAYER": "HIGH MUST LIGHT", "State": "Chattisgarh", "Block": "Dantewada", "Village": "Badebacheli" }, "geometry": { "type": "Point", "coordinates": [ 81.287001698934702, 18.683107168328956 ] } },
{ "type": "Feature", "properties": { "NAME": "BORE WELL WITH SOLAR TANK AT RAKESH KUNJAM HOUSE", "LAYER": "SOLAR WATERTANK", "State": "Chattisgarh", "Block": "Dantewada", "Village": "Badebacheli" }, "geometry": { "type": "Point", "coordinates": [ 81.285736557802295, 18.684337396459824 ] } },
{ "type": "Feature", "properties": { "NAME": "BORE WELL WITH SOLAR TANK AT HUNGA KUNJAM HOUSE", "LAYER": "SOLAR WATERTANK", "State": "Chattisgarh", "Block": "Dantewada", "Village": "Badebacheli" }, "geometry": { "type": "Point", "coordinates": [ 81.28701757278408, 18.683050255507112 ] } },
{ "type": "Feature", "properties": { "NAME": "CULVERT AT PANDRU KUNJAM HOUSE CC ROADD", "LAYER": "CULVERT", "State": "Chattisgarh", "Block": "Dantewada", "Village": "Badebacheli" }, "geometry": { "type": "Point", "coordinates": [ 81.287836603881061, 18.68296322680429 ] } },
{ "type": "Feature", "properties": { "NAME": "CULVERT AT RAME DURUVA KETH", "LAYER": "CULVERT", "State": "Chattisgarh", "Block": "Dantewada", "Village": "Badebacheli" }, "geometry": { "type": "Point", "coordinates": [ 81.281237847536957, 18.688470913236792 ] } },
{ "type": "Feature", "properties": { "NAME": "CULVERT", "LAYER": "CULVERT", "State": "Chattisgarh", "Block": "Dantewada", "Village": "Badebacheli" }, "geometry": { "type": "Point", "coordinates": [ 81.283565216361666, 18.686019141987419 ] } },
{ "type": "Feature", "properties": { "NAME": "CULVERT", "LAYER": "CULVERT", "State": "Chattisgarh", "Block": "Dantewada", "Village": "Badebacheli" }, "geometry": { "type": "Point", "coordinates": [ 81.284186653145767, 18.687388707393527 ] } },
{ "type": "Feature", "properties": { "NAME": "CULVERT REPAIR", "LAYER": "CULVERT", "State": "Chattisgarh", "Block": "Dantewada", "Village": "Badebacheli" }, "geometry": { "type": "Point", "coordinates": [ 81.283220260011802, 18.684095709654606 ] } },
{ "type": "Feature", "properties": { "NAME": "SOLAR WATER TANK AT DASRATH HOUSE,DASRATH PARA", "LAYER": "SOLAR WATERTANK", "State": "Chattisgarh", "Block": "Dantewada", "Village": "Badebacheli" }, "geometry": { "type": "Point", "coordinates": [ 81.257769528663474, 18.715310398149235 ] } },
{ "type": "Feature", "properties": { "NAME": "HIGH MAS LIGHT AT DASRATH HOUSE,DASRATH PARA", "LAYER": "HIGH MUST LIGHT", "State": "Chattisgarh", "Block": "Dantewada", "Village": "Badebacheli" }, "geometry": { "type": "Point", "coordinates": [ 81.257674457397087, 18.7152517240721 ] } },
{ "type": "Feature", "properties": { "NAME": "HIGH MAST LIGHT KADATHI CHOWK ,BADE PARA", "LAYER": "HIGH MUST LIGHT", "State": "Chattisgarh", "Block": "Dantewada", "Village": "Badebacheli" }, "geometry": { "type": "Point", "coordinates": [ 81.262571856370172, 18.701885092458152 ] } },
{ "type": "Feature", "properties": { "NAME": "SOLAR WATER TANK KADATHI CHOWK ,BADE PARA", "LAYER": "SOLAR WATERTANK", "State": "Chattisgarh", "Block": "Dantewada", "Village": "Badebacheli" }, "geometry": { "type": "Point", "coordinates": [ 81.262508655230661, 18.701870149677507 ] } },
{ "type": "Feature", "properties": { "NAME": "COMMUNITY HALL KADATHI CHOWK ,BADE PARA", "LAYER": "COMMUNITY HALL", "State": "Chattisgarh", "Block": "Dantewada", "Village": "Badebacheli" }, "geometry": { "type": "Point", "coordinates": [ 81.262471821569306, 18.70177076298771 ] } },
{ "type": "Feature", "properties": { "NAME": "HIGH MAST LIGHT AT SAMSAN GHAT KUA PARA", "LAYER": "HIGH MUST LIGHT", "State": "Chattisgarh", "Block": "Dantewada", "Village": "Badebacheli" }, "geometry": { "type": "Point", "coordinates": [ 81.274256063938665, 18.705643922202245 ] } },
{ "type": "Feature", "properties": { "NAME": "HIGH MAST LIGHT AT ANAGNWADI KUA PARA", "LAYER": "HIGH MUST LIGHT", "State": "Chattisgarh", "Block": "Dantewada", "Village": "Badebacheli" }, "geometry": { "type": "Point", "coordinates": [ 81.273143994443842, 18.7091497330733 ] } },
{ "type": "Feature", "properties": { "NAME": "SOLAR WATER TANK AT LALA RANA HOUSE", "LAYER": "SOLAR WATERTANK", "State": "Chattisgarh", "Block": "Dantewada", "Village": "Badebacheli" }, "geometry": { "type": "Point", "coordinates": [ 81.275122528810613, 18.686429661533992 ] } },
{ "type": "Feature", "properties": { "NAME": "CULVERT AT NMDC DAIRY", "LAYER": "CULVERT", "State": "Chattisgarh", "Block": "Dantewada", "Village": "Badebacheli" }, "geometry": { "type": "Point", "coordinates": [ 81.266502468344768, 18.683148109043703 ] } },
{ "type": "Feature", "properties": { "NAME": "BRIDGE AT MAJHI PARA CHOWK", "LAYER": "BRIDGE", "State": "Chattisgarh", "Block": "Dantewada", "Village": "Badebacheli" }, "geometry": { "type": "Point", "coordinates": [ 81.270731553656049, 18.694929123037028 ] } },
{ "type": "Feature", "properties": { "NAME": "HIGH MAST LIGHT AT MAJHI PARA CHOWK", "LAYER": "HIGH MUST LIGHT", "State": "Chattisgarh", "Block": "Dantewada", "Village": "Badebacheli" }, "geometry": { "type": "Point", "coordinates": [ 81.2710118923452, 18.694507791852963 ] } },
{ "type": "Feature", "properties": { "NAME": "SOLAR WATER TANK AT AAM BAGICHA MAJHI PARA", "LAYER": "SOLAR WATERTANK", "State": "Chattisgarh", "Block": "Dantewada", "Village": "Badebacheli" }, "geometry": { "type": "Point", "coordinates": [ 81.272617343276409, 18.695630898685341 ] } },
{ "type": "Feature", "properties": { "NAME": "HIGH MAST LIGHT AT AMM BAGICHA MAJHI PARA", "LAYER": "HIGH MUST LIGHT", "State": "Chattisgarh", "Block": "Dantewada", "Village": "Badebacheli" }, "geometry": { "type": "Point", "coordinates": [ 81.27265892613967, 18.695761918830893 ] } },
{ "type": "Feature", "properties": { "NAME": "WHS AT CHOTU KUNJAM KETH BAINSIMUNDA", "LAYER": "WHS", "State": "Chattisgarh", "Block": "Dantewada", "Village": "Badebacheli" }, "geometry": { "type": "Point", "coordinates": [ 81.278644669925683, 18.68115580574392 ] } },
{ "type": "Feature", "properties": { "NAME": "SOLAR WATER TANK AT JOGA KUNJAM HOUSE", "LAYER": "SOLAR WATERTANK", "State": "Chattisgarh", "Block": "Dantewada", "Village": "Badebacheli" }, "geometry": { "type": "Point", "coordinates": [ 81.284182181702121, 18.684949988704155 ] } },
{ "type": "Feature", "properties": { "NAME": "WHS AT DINESH KETH MAHARA PARA", "LAYER": "WHS", "State": "Chattisgarh", "Block": "Dantewada", "Village": "Badebacheli" }, "geometry": { "type": "Point", "coordinates": [ 81.280868417272046, 18.685258652545681 ] } },
{ "type": "Feature", "properties": { "NAME": "HIGH MAST LIGHT AT AT MADAKU HOUSE PATEL PARA", "LAYER": "HIGH MUST LIGHT", "State": "Chattisgarh", "Block": "Dantewada", "Village": "Badebacheli" }, "geometry": { "type": "Point", "coordinates": [ 81.276398819494531, 18.700484502608351 ] } },
{ "type": "Feature", "properties": { "NAME": "BOREWELL REPAIR  WITH SOLAR TANK AT RAJU HOUSE PATEL PARA", "LAYER": "SOLAR WATERTANK", "State": "Chattisgarh", "Block": "Dantewada", "Village": "Badebacheli" }, "geometry": { "type": "Point", "coordinates": [ 81.277942833437635, 18.699919981570989 ] } },
{ "type": "Feature", "properties": { "NAME": "BORE WELL REPAIR WITH SOLAR WATER TANK AT MADAKU HOUSE PATEL PARA", "LAYER": "SOLAR WATERTANK", "State": "Chattisgarh", "Block": "Dantewada", "Village": "Badebacheli" }, "geometry": { "type": "Point", "coordinates": [ 81.276385945985297, 18.700444377350138 ] } },
{ "type": "Feature", "properties": { "NAME": "HIGH MAST LIGHT AT HUNGA DHULA HOUSE CHOWK PATEL PARA", "LAYER": "HIGH MUST LIGHT", "State": "Chattisgarh", "Block": "Dantewada", "Village": "Badebacheli" }, "geometry": { "type": "Point", "coordinates": [ 81.27778117851436, 18.699342117846228 ] } },
{ "type": "Feature", "properties": { "NAME": "HIGH MAST LIGHT AT GIRLS ASHRAM PATEL PARA", "LAYER": "HIGH MUST LIGHT", "State": "Chattisgarh", "Block": "Dantewada", "Village": "Badebacheli" }, "geometry": { "type": "Point", "coordinates": [ 81.276222272073383, 18.698236012032485 ] } },
{ "type": "Feature", "properties": { "NAME": "WHS AT GUDDI PANDU PATEL PARA", "LAYER": "WHS", "State": "Chattisgarh", "Block": "Dantewada", "Village": "Badebacheli" }, "geometry": { "type": "Point", "coordinates": [ 81.273977956741632, 18.696637370213214 ] } },
{ "type": "Feature", "properties": { "NAME": "HIGH MAST LIGHT AT ARUN SHOP MAHARA PARA", "LAYER": "HIGH MUST LIGHT", "State": "Chattisgarh", "Block": "Dantewada", "Village": "Badebacheli" }, "geometry": { "type": "Point", "coordinates": [ 81.280312900484105, 18.692539600442984 ] } },
{ "type": "Feature", "properties": { "NAME": "SOLAR WATER TANK AT BHURSU HOUSE MAHARA PARA", "LAYER": "SOLAR WATERTANK", "State": "Chattisgarh", "Block": "Dantewada", "Village": "Badebacheli" }, "geometry": { "type": "Point", "coordinates": [ 81.280046306561957, 18.694532676964823 ] } },
{ "type": "Feature", "properties": { "NAME": "HIGH MAST LIGHT AT SIBHU NAG HOUSE MAHARA PARA", "LAYER": "HIGH MUST LIGHT", "State": "Chattisgarh", "Block": "Dantewada", "Village": "Badebacheli" }, "geometry": { "type": "Point", "coordinates": [ 81.277550805717524, 18.695260704587572 ] } },
{ "type": "Feature", "properties": { "NAME": "SOLAR WATER TANK AT ANGANWADI MAHARA PARA", "LAYER": "SOLAR WATERTANK", "State": "Chattisgarh", "Block": "Dantewada", "Village": "Badebacheli" }, "geometry": { "type": "Point", "coordinates": [ 81.281899771219784, 18.691760912753114 ] } },
{ "type": "Feature", "properties": { "NAME": "SPLII WAYS 5 NO'S AT DOLI MAHARA PARA", "LAYER": "SPILL WAY", "State": "Chattisgarh", "Block": "Dantewada", "Village": "Badebacheli" }, "geometry": { "type": "Point", "coordinates": [ 81.278690116831029, 18.696472235414177 ] } },
{ "type": "Feature", "properties": { "NAME": "WHS AT KIDUA PARA", "LAYER": "WHS", "State": "Chattisgarh", "Block": "Dantewada", "Village": "Badebacheli" }, "geometry": { "type": "Point", "coordinates": [ 81.282306149138961, 18.691596006125099 ] } },
{ "type": "Feature", "properties": { "NAME": "CHECK DAM DINESH DOLI SIDE MAHARA PARA", "LAYER": "CHECKDAM", "State": "Chattisgarh", "Block": "Dantewada", "Village": "Badebacheli" }, "geometry": { "type": "Point", "coordinates": [ 81.276648796209344, 18.689570792336877 ] } },
{ "type": "Feature", "properties": { "NAME": "CHECK DAM AT MUNA KETH PUJARI PARA", "LAYER": "CHECKDAM", "State": "Chattisgarh", "Block": "Dantewada", "Village": "Badebacheli" }, "geometry": { "type": "Point", "coordinates": [ 81.276113811820963, 18.690225897397209 ] } },
{ "type": "Feature", "properties": { "NAME": "HIGH MAST LIGHT AT MATHA GUDU PATEL PARA", "LAYER": "HIGH MUST LIGHT", "State": "Chattisgarh", "Block": "Dantewada", "Village": "Badebacheli" }, "geometry": { "type": "Point", "coordinates": [ 81.274706371754803, 18.701207054058319 ] } },
{ "type": "Feature", "properties": { "NAME": "SOLAR WATER TANK AT MATHA GUDI", "LAYER": "SOLAR WATERTANK", "State": "Chattisgarh", "Block": "Dantewada", "Village": "Badebacheli" }, "geometry": { "type": "Point", "coordinates": [ 81.274723586929284, 18.701317519897426 ] } },
{ "type": "Feature", "properties": { "NAME": "CHECK DAM REAPIR AT DHOBI GHAT PATEL PARA", "LAYER": "CHECKDAM", "State": "Chattisgarh", "Block": "Dantewada", "Village": "Badebacheli" }, "geometry": { "type": "Point", "coordinates": [ 81.273684542230868, 18.69970130117779 ] } },
{ "type": "Feature", "properties": { "NAME": "CHECK DAM AT DEVA VAKADE", "LAYER": "CHECKDAM", "State": "Chattisgarh", "Block": "Dantewada", "Village": "Badebacheli" }, "geometry": { "type": "Point", "coordinates": [ 81.273837696659044, 18.698642882797326 ] } },
{ "type": "Feature", "properties": { "NAME": "HIGH MAST LIGHT AT BHANDARAM HOUSE CHOWK PATEL PARA", "LAYER": "HIGH MUST LIGHT", "State": "Chattisgarh", "Block": "Dantewada", "Village": "Badebacheli" }, "geometry": { "type": "Point", "coordinates": [ 81.275268783475354, 18.699425245309413 ] } },
{ "type": "Feature", "properties": { "NAME": "CULVERT AT LAKKU KETH", "LAYER": "CULVERT", "State": "Chattisgarh", "Block": "Dantewada", "Village": "Badebacheli" }, "geometry": { "type": "Point", "coordinates": [ 81.279058578636835, 18.696322322068674 ] } },
{ "type": "Feature", "properties": { "NAME": "SOLAR WATER TANK AT RAJKUMAR MADAVI HOUSE PATEL PARA", "LAYER": "SOLAR WATERTANK", "State": "Chattisgarh", "Block": "Dantewada", "Village": "Badebacheli" }, "geometry": { "type": "Point", "coordinates": [ 81.278099448393732, 18.697079265880621 ] } },
{ "type": "Feature", "properties": { "NAME": "BRIDGE AT BHAKTU KETH", "LAYER": "BRIDGE", "State": "Chattisgarh", "Block": "Dantewada", "Village": "Badebacheli" }, "geometry": { "type": "Point", "coordinates": [ 81.279400659866141, 18.697589746459236 ] } },
{ "type": "Feature", "properties": { "NAME": "SAMUDAYAK BAWAN WITH TOILETS,LIBRARY,", "LAYER": "COMMUNITY HALL", "State": "Chattisgarh", "Block": "Dantewada", "Village": "Badebacheli" }, "geometry": { "type": "Point", "coordinates": [ 81.275942036564444, 18.698314936166046 ] } },
{ "type": "Feature", "properties": { "NAME": "WHS AT ARUN KETH MAHARA PARA", "LAYER": "WHS", "State": "Chattisgarh", "Block": "Dantewada", "Village": "Badebacheli" }, "geometry": { "type": "Point", "coordinates": [ 81.278043343263036, 18.689433384801532 ] } },
{ "type": "Feature", "properties": { "NAME": "HIGH MAST LIGHT AT GUDDI PANDU HOUSE CHOWK PATEL PARA", "LAYER": "HIGH MUST LIGHT", "State": "Chattisgarh", "Block": "Dantewada", "Village": "Badebacheli" }, "geometry": { "type": "Point", "coordinates": [ 81.278855008819193, 18.697187837087395 ] } },
{ "type": "Feature", "properties": { "NAME": "HIGH MAST LIGHT AT MAHESH GUDDI HOUSE KALMU PARA", "LAYER": "HIGH MUST LIGHT", "State": "Chattisgarh", "Block": "Dantewada", "Village": "Badebacheli" }, "geometry": { "type": "Point", "coordinates": [ 81.280896690338494, 18.701100315004535 ] } },
{ "type": "Feature", "properties": { "NAME": "SOLAR WATER TANK MAHESH GUDDI HOUSE KALMU PARA", "LAYER": "SOLAR WATERTANK", "State": "Chattisgarh", "Block": "Dantewada", "Village": "Badebacheli" }, "geometry": { "type": "Point", "coordinates": [ 81.280816854707027, 18.70134270885919 ] } },
{ "type": "Feature", "properties": { "NAME": "BORE WELL WITH SOLAR TANK AT KIDUA PARA", "LAYER": "SOLAR WATERTANK", "State": "Chattisgarh", "Block": "Dantewada", "Village": "Badebacheli" }, "geometry": { "type": "Point", "coordinates": [ 81.282984658825697, 18.694211282146476 ] } },
{ "type": "Feature", "properties": { "NAME": "SOLAR WATER TANK PLATFORM REPAIR AT HUNGA DORA KALMU PARA", "LAYER": "SOLAR WATERTANK", "State": "Chattisgarh", "Block": "Dantewada", "Village": "Badebacheli" }, "geometry": { "type": "Point", "coordinates": [ 81.280994344065761, 18.699472889340296 ] } },
{ "type": "Feature", "properties": { "NAME": "HIGH MAST LIGHT AT RAHUL HOUSE CHOWK KALMU PARA", "LAYER": "HIGH MUST LIGHT", "State": "Chattisgarh", "Block": "Dantewada", "Village": "Badebacheli" }, "geometry": { "type": "Point", "coordinates": [ 81.280845508448337, 18.697924627869462 ] } },
{ "type": "Feature", "properties": { "NAME": "HIGH MAST LIGHT AT KIDUA PARA", "LAYER": "HIGH MUST LIGHT", "State": "Chattisgarh", "Block": "Dantewada", "Village": "Badebacheli" }, "geometry": { "type": "Point", "coordinates": [ 81.282905161326255, 18.694018866088985 ] } },
{ "type": "Feature", "properties": { "NAME": "PRIMERY SCHOOL DEVELOPMENT (OLD BUILDINGS REMOVEMENT REQUIRED) PATEL PARA", "LAYER": "PRIMARY SCHOOL", "State": "Chattisgarh", "Block": "Dantewada", "Village": "Badebacheli" }, "geometry": { "type": "Point", "coordinates": [ 81.276160216475262, 18.697935604600957 ] } },
{ "type": "Feature", "properties": { "NAME": "POND REPAIR AT ARUN KETH MAHARA PARA", "LAYER": "POND RENNOVATION", "State": "Chattisgarh", "Block": "Dantewada", "Village": "Badebacheli" }, "geometry": { "type": "Point", "coordinates": [ 81.280015960227004, 18.689320877002999 ] } },
{ "type": "Feature", "properties": { "NAME": "BOREWELL WITH SOLAR TANK AT ANGANWADI PUJARI PARA", "LAYER": "SOLAR WATERTANK", "State": "Chattisgarh", "Block": "Dantewada", "Village": "Badebacheli" }, "geometry": { "type": "Point", "coordinates": [ 81.275178008285835, 18.693653317614906 ] } },
{ "type": "Feature", "properties": { "NAME": "SOLAR WATER TANK AT RAJESH NAG HOUSE PUJARI PARA", "LAYER": "SOLAR WATERTANK", "State": "Chattisgarh", "Block": "Dantewada", "Village": "Badebacheli" }, "geometry": { "type": "Point", "coordinates": [ 81.275451913013555, 18.69164431171221 ] } },
{ "type": "Feature", "properties": { "NAME": "SOLAR WATER TANK AT DINESH HOUSE PUJARI PARA", "LAYER": "SOLAR WATERTANK", "State": "Chattisgarh", "Block": "Dantewada", "Village": "Badebacheli" }, "geometry": { "type": "Point", "coordinates": [ 81.276171275394773, 18.693120824064067 ] } },
{ "type": "Feature", "properties": { "NAME": "HIGH MAST LIGHT AT SONA DHAR HOUSE PUJARI PARA", "LAYER": "HIGH MUST LIGHT", "State": "Chattisgarh", "Block": "Dantewada", "Village": "Badebacheli" }, "geometry": { "type": "Point", "coordinates": [ 81.275562969319253, 18.692169829585431 ] } },
{ "type": "Feature", "properties": { "NAME": "HIGH MAST LIGHT AT DINSH HOUSE PUJARI PARA", "LAYER": "HIGH MUST LIGHT", "State": "Chattisgarh", "Block": "Dantewada", "Village": "Badebacheli" }, "geometry": { "type": "Point", "coordinates": [ 81.2758946227124, 18.692937434522001 ] } },
{ "type": "Feature", "properties": { "NAME": "WHS AT MANDHAR KETH", "LAYER": "WHS", "State": "Chattisgarh", "Block": "Dantewada", "Village": "Badebacheli" }, "geometry": { "type": "Point", "coordinates": [ 81.274788979962125, 18.693181191949009 ] } },
{ "type": "Feature", "properties": { "NAME": "CHECK DAM AT AURA KUDRA PUJARI PARA", "LAYER": "CHECKDAM", "State": "Chattisgarh", "Block": "Dantewada", "Village": "Badebacheli" }, "geometry": { "type": "Point", "coordinates": [ 81.274322284861881, 18.692316043247818 ] } },
{ "type": "Feature", "properties": { "NAME": "SAMUDAYAK BHWAN WITH TIOLETS,BOREWELL,BOUNDARY WALL, AT RAMLAL HOUSE", "LAYER": "COMMUNITY HALL", "State": "Chattisgarh", "Block": "Dantewada", "Village": "Badebacheli" }, "geometry": { "type": "Point", "coordinates": [ 81.287132414691499, 18.683226286760721 ] } },
{ "type": "Feature", "properties": { "NAME": "SMALL DOME SHED AT JOGA KUNJAM HOUSE", "LAYER": "DOME SHED", "State": "Chattisgarh", "Block": "Dantewada", "Village": "Badebacheli" }, "geometry": { "type": "Point", "coordinates": [ 81.28442633301357, 18.684976015708472 ] } },
{ "type": "Feature", "properties": { "NAME": "DURGA MANDIR TAMO PARA", "LAYER": "MANDAP", "State": "Chattisgarh", "Block": "Dantewada", "Village": "Badebacheli" }, "geometry": { "type": "Point", "coordinates": [ 81.263518376022404, 18.686887736620683 ] } },
{ "type": "Feature", "properties": { "NAME": "HIGH MAST LIGHT AT PRIMERY SCHOOL KAYA PARA", "LAYER": "HIGH MUST LIGHT", "State": "Chattisgarh", "Block": "Dantewada", "Village": "Badebacheli" }, "geometry": { "type": "Point", "coordinates": [ 81.28346647498293, 18.685971156177168 ] } },
{ "type": "Feature", "properties": { "NAME": "SOLAR WATER TANK AT RAJU DODDI HOUSE TAMO PARA", "LAYER": "SOLAR WATERTANK", "State": "Chattisgarh", "Block": "Dantewada", "Village": "Badebacheli" }, "geometry": { "type": "Point", "coordinates": [ 81.256854113147824, 18.68258314680395 ] } },
{ "type": "Feature", "properties": { "NAME": "SOLAR WATER TANK DURGA MANDIR", "LAYER": "SOLAR WATERTANK", "State": "Chattisgarh", "Block": "Dantewada", "Village": "Badebacheli" }, "geometry": { "type": "Point", "coordinates": [ 81.263506472810505, 18.686800614067447 ] } },
{ "type": "Feature", "properties": { "NAME": "SOLAR WATER TANK AT DHRUVA TAMO HOUSE", "LAYER": "SOLAR WATERTANK", "State": "Chattisgarh", "Block": "Dantewada", "Village": "Badebacheli" }, "geometry": { "type": "Point", "coordinates": [ 81.261729044042156, 18.685444330225511 ] } },
{ "type": "Feature", "properties": { "NAME": "HIGH MAST LIGHT AT DHRUVA TAMO HOUSE", "LAYER": "HIGH MUST LIGHT", "State": "Chattisgarh", "Block": "Dantewada", "Village": "Badebacheli" }, "geometry": { "type": "Point", "coordinates": [ 81.261607701251137, 18.685463803284634 ] } },
{ "type": "Feature", "properties": { "NAME": "HIGH MAST LIGHT AT LAKMA KARMA HOUSE", "LAYER": "HIGH MUST LIGHT", "State": "Chattisgarh", "Block": "Dantewada", "Village": "Badebacheli" }, "geometry": { "type": "Point", "coordinates": [ 81.257285340897454, 18.682571359561347 ] } },
{ "type": "Feature", "properties": { "NAME": "HIGH MAST LIGHT AT DURGA MANDIR", "LAYER": "HIGH MUST LIGHT", "State": "Chattisgarh", "Block": "Dantewada", "Village": "Badebacheli" }, "geometry": { "type": "Point", "coordinates": [ 81.263610567732144, 18.686809335562945 ] } },
{ "type": "Feature", "properties": { "NAME": "HIGH MAST LIGHT AT ANGANWADI TAMO PARA", "LAYER": "HIGH MUST LIGHT", "State": "Chattisgarh", "Block": "Dantewada", "Village": "Badebacheli" }, "geometry": { "type": "Point", "coordinates": [ 81.265466789094546, 18.685932057659105 ] } },
{ "type": "Feature", "properties": { "NAME": "HIGH MAST LIGHT AT NANDU TAMO HOUSE TAMO PARA", "LAYER": "HIGH MUST LIGHT", "State": "Chattisgarh", "Block": "Dantewada", "Village": "Badebacheli" }, "geometry": { "type": "Point", "coordinates": [ 81.264224531355453, 18.685713114702121 ] } },
{ "type": "Feature", "properties": { "NAME": "BOREWELL WITH SOLAR TANK AT NANDU TAMO HOUSE", "LAYER": "SOLAR WATERTANK", "State": "Chattisgarh", "Block": "Dantewada", "Village": "Badebacheli" }, "geometry": { "type": "Point", "coordinates": [ 81.263966103625663, 18.685704355784036 ] } },
{ "type": "Feature", "properties": { "NAME": "CHECKDAM WITH IRRIGATION CANAL AT BUDUGA ERKA", "LAYER": "CHECKDAM", "State": "Chattisgarh", "Block": "Dantewada", "Village": "Badebacheli" }, "geometry": { "type": "Point", "coordinates": [ 81.261379644100856, 18.680334186301579 ] } },
{ "type": "Feature", "properties": { "NAME": "SOLAR WATER TANK BHAMAN TAMO HOUSE", "LAYER": "SOLAR WATERTANK", "State": "Chattisgarh", "Block": "Dantewada", "Village": "Badebacheli" }, "geometry": { "type": "Point", "coordinates": [ 81.264912958301039, 18.683417059178776 ] } },
{ "type": "Feature", "properties": { "NAME": "HIGH MAST LIGHT AT BHAMAN TAMO HOUSE", "LAYER": "HIGH MUST LIGHT", "State": "Chattisgarh", "Block": "Dantewada", "Village": "Badebacheli" }, "geometry": { "type": "Point", "coordinates": [ 81.264930892354769, 18.683613378228497 ] } },
{ "type": "Feature", "properties": { "NAME": "SOLAR WATER TANK AT PANCHAYAT OFFICE TAMO PARA", "LAYER": "SOLAR WATERTANK", "State": "Chattisgarh", "Block": "Dantewada", "Village": "Badebacheli" }, "geometry": { "type": "Point", "coordinates": [ 81.262348161876417, 18.686139502004067 ] } },
{ "type": "Feature", "properties": { "NAME": "HIGH MAST LIGHT AT PANCHAYAT OFFICE TAMO PARA", "LAYER": "HIGH MUST LIGHT", "State": "Chattisgarh", "Block": "Dantewada", "Village": "Badebacheli" }, "geometry": { "type": "Point", "coordinates": [ 81.262412133428654, 18.685976374792336 ] } },
{ "type": "Feature", "properties": { "NAME": "SOLAR WATER TANK AT LAXMAN TAMO HOUSE", "LAYER": "SOLAR WATERTANK", "State": "Chattisgarh", "Block": "Dantewada", "Village": "Badebacheli" }, "geometry": { "type": "Point", "coordinates": [ 81.261822622589335, 18.686826894065618 ] } },
{ "type": "Feature", "properties": { "NAME": "SOLAR WATER TANK AT ANGANWADI TAMO PARA", "LAYER": "SOLAR WATERTANK", "State": "Chattisgarh", "Block": "Dantewada", "Village": "Badebacheli" }, "geometry": { "type": "Point", "coordinates": [ 81.265719201639016, 18.686065429199122 ] } },
{ "type": "Feature", "properties": { "NAME": "HIGH MAST LIGHT AT LAXMAN TAMO HOUSE", "LAYER": "HIGH MUST LIGHT", "State": "Chattisgarh", "Block": "Dantewada", "Village": "Badebacheli" }, "geometry": { "type": "Point", "coordinates": [ 81.261491896027209, 18.686901075655086 ] } },
{ "type": "Feature", "properties": { "NAME": "HIGH MAST LIGHT AT HIGH SCHOOL CHOWK", "LAYER": "HIGH MUST LIGHT", "State": "Chattisgarh", "Block": "Dantewada", "Village": "Badebacheli" }, "geometry": { "type": "Point", "coordinates": [ 81.257304553229133, 18.692292157590455 ] } },
{ "type": "Feature", "properties": { "NAME": "HIGH MAST LIGHT AT GANESH MANDAP PANDU PARA", "LAYER": "HIGH MUST LIGHT", "State": "Chattisgarh", "Block": "Dantewada", "Village": "Badebacheli" }, "geometry": { "type": "Point", "coordinates": [ 81.257635180882005, 18.692612123907754 ] } },
{ "type": "Feature", "properties": { "NAME": "HIGH MAST LIGHT AT RAJU KUNJAM HOUSE", "LAYER": "HIGH MUST LIGHT", "State": "Chattisgarh", "Block": "Dantewada", "Village": "Badebacheli" }, "geometry": { "type": "Point", "coordinates": [ 81.257985366634927, 18.69345192993331 ] } },
{ "type": "Feature", "properties": { "NAME": "SOLARWATER TANK AT SANKAR MADAVI HOUSE", "LAYER": "SOLAR WATERTANK", "State": "Chattisgarh", "Block": "Dantewada", "Village": "Badebacheli" }, "geometry": { "type": "Point", "coordinates": [ 81.258373110661765, 18.694378141059186 ] } },
{ "type": "Feature", "properties": { "NAME": "SOLAR WATER TANK AT DURGA MANDIR PANDU PARA", "LAYER": "SOLAR WATERTANK", "State": "Chattisgarh", "Block": "Dantewada", "Village": "Badebacheli" }, "geometry": { "type": "Point", "coordinates": [ 81.258511083152229, 18.692346732495999 ] } },
{ "type": "Feature", "properties": { "NAME": "GANESH MANDAP REPAIRING AND SECOND FLOOR REQUIRED", "LAYER": "MANDAP", "State": "Chattisgarh", "Block": "Dantewada", "Village": "Badebacheli" }, "geometry": { "type": "Point", "coordinates": [ 81.257698452101991, 18.692683143756607 ] } },
{ "type": "Feature", "properties": { "NAME": "HIGH MAST LIGHT AT PANCHAYAT OFFICE", "LAYER": "HIGH MUST LIGHT", "State": "Chattisgarh", "Block": "Dantewada", "Village": "Badebacheli" }, "geometry": { "type": "Point", "coordinates": [ 81.260651056035442, 18.692147504999252 ] } },
{ "type": "Feature", "properties": { "NAME": "NEW ANAGANWADI BUILDING REQUIRED AT LATI PARA", "LAYER": "ANGANWADI BUILDING", "State": "Chattisgarh", "Block": "Dantewada", "Village": "Badebacheli" }, "geometry": { "type": "Point", "coordinates": [ 81.260790100509354, 18.691981005813972 ] } },
{ "type": "Feature", "properties": { "NAME": "SOLAR WATER TANK REQUIRED AT PANCHAYAT BHWAVAN", "LAYER": "SOLAR WATERTANK", "State": "Chattisgarh", "Block": "Dantewada", "Village": "Badebacheli" }, "geometry": { "type": "Point", "coordinates": [ 81.261337734409466, 18.692202052749501 ] } },
{ "type": "Feature", "properties": { "NAME": "DOME SHED REQUIRED AT PANCHAYAT BHAWAN", "LAYER": "DOME SHED", "State": "Chattisgarh", "Block": "Dantewada", "Village": "Badebacheli" }, "geometry": { "type": "Point", "coordinates": [ 81.26114768248587, 18.692097218501374 ] } },
{ "type": "Feature", "properties": { "NAME": "BORE WELL WITH SOLAR TANK AT RAJU HOUSE LATIPARA", "LAYER": "SOLAR WATERTANK", "State": "Chattisgarh", "Block": "Dantewada", "Village": "Badebacheli" }, "geometry": { "type": "Point", "coordinates": [ 81.264334222136512, 18.690777025611155 ] } },
{ "type": "Feature", "properties": { "NAME": "HIGH MAST LIGHT AT RAJU HOUSE LATIPARA", "LAYER": "HIGH MUST LIGHT", "State": "Chattisgarh", "Block": "Dantewada", "Village": "Badebacheli" }, "geometry": { "type": "Point", "coordinates": [ 81.264222482056184, 18.690436404521609 ] } },
{ "type": "Feature", "properties": { "NAME": "HIGH MAST LIGHT AT RAJU TAMO HOUSE", "LAYER": "HIGH MUST LIGHT", "State": "Chattisgarh", "Block": "Dantewada", "Village": "Badebacheli" }, "geometry": { "type": "Point", "coordinates": [ 81.264602482072419, 18.691705535719908 ] } },
{ "type": "Feature", "properties": { "NAME": "HIGH MAST LIGHT AT BOYS HOSTEL LATIPARA", "LAYER": "HIGH MUST LIGHT", "State": "Chattisgarh", "Block": "Dantewada", "Village": "Badebacheli" }, "geometry": { "type": "Point", "coordinates": [ 81.262068693198302, 18.691688045757253 ] } },
{ "type": "Feature", "properties": { "NAME": "WHS AT DAMO KUTTA", "LAYER": "WHS", "State": "Chattisgarh", "Block": "Dantewada", "Village": "Badebacheli" }, "geometry": { "type": "Point", "coordinates": [ 81.255035343916191, 18.687525206177341 ] } },
{ "type": "Feature", "properties": { "NAME": "CHECKDAM AT RAJU KETH", "LAYER": "CHECKDAM", "State": "Chattisgarh", "Block": "Dantewada", "Village": "Badebacheli" }, "geometry": { "type": "Point", "coordinates": [ 81.267128317946728, 18.688571814168739 ] } },
{ "type": "Feature", "properties": { "NAME": "CHECKDAM AT DHANESH MUNDA", "LAYER": "CHECKDAM", "State": "Chattisgarh", "Block": "Dantewada", "Village": "Badebacheli" }, "geometry": { "type": "Point", "coordinates": [ 81.267568941113623, 18.690994751840563 ] } },
{ "type": "Feature", "properties": { "NAME": "HIGH MAST LIGHT AT SANJAY MADAVI HOUSE", "LAYER": "HIGH MUST LIGHT", "State": "Chattisgarh", "Block": "Dantewada", "Village": "Badebacheli" }, "geometry": { "type": "Point", "coordinates": [ 81.253109944120695, 18.69159519057348 ] } },
{ "type": "Feature", "properties": { "NAME": "SOLAR WATER TANK AT SANJAY MANDAVI HOUSE", "LAYER": "SOLAR WATERTANK", "State": "Chattisgarh", "Block": "Dantewada", "Village": "Badebacheli" }, "geometry": { "type": "Point", "coordinates": [ 81.25298410126203, 18.69155275435465 ] } },
{ "type": "Feature", "properties": { "NAME": "HIGH MAST LIGHT AT TATI HOUSE", "LAYER": "HIGH MUST LIGHT", "State": "Chattisgarh", "Block": "Dantewada", "Village": "Badebacheli" }, "geometry": { "type": "Point", "coordinates": [ 81.262047649745853, 18.697709783022631 ] } },
{ "type": "Feature", "properties": { "NAME": "HIGH MAST LIGHT AT SUKHRAM HOUSE", "LAYER": "HIGH MUST LIGHT", "State": "Chattisgarh", "Block": "Dantewada", "Village": "Badebacheli" }, "geometry": { "type": "Point", "coordinates": [ 81.260893077055769, 18.69054698552992 ] } },
{ "type": "Feature", "properties": { "NAME": "LAND DEVELOPMET AT PUJARI PARA", "LAYER": "LAND REPAIR", "State": "Chattisgarh", "Block": "Dantewada", "Village": "Badebacheli" }, "geometry": { "type": "Point", "coordinates": [ 81.272184500074218, 18.691936781147803 ] } },
{ "type": "Feature", "properties": { "NAME": "HIGH MAST LIGHT AT BAJARANG HOUSE PUJARI PARA", "LAYER": "HIGH MUST LIGHT", "State": "Chattisgarh", "Block": "Dantewada", "Village": "Badebacheli" }, "geometry": { "type": "Point", "coordinates": [ 81.276343802254445, 18.695724408978794 ] } },
{ "type": "Feature", "properties": { "NAME": "RENNOVATION OF KANYA ASRAM DHURLI", "LAYER": "POND RENNOVATION", "State": "Chattisgarh", "Block": "Dantewada", "Village": "Dhurli" }, "geometry": { "type": "Point", "coordinates": [ 81.286328106289204, 18.790675501388364 ] } },
{ "type": "Feature", "properties": { "NAME": "PLAY GROUND DEVELOPMENT AT BOYS AND GIRLS HOSTEL AND SCHOOL DHURLI", "LAYER": "PLAY GROUND", "State": "Chattisgarh", "Block": "Dantewada", "Village": "Dhurli" }, "geometry": { "type": "Point", "coordinates": [ 81.283995447041619, 18.783837336328279 ] } },
{ "type": "Feature", "properties": { "NAME": "RENNO VATION OF POND AT SCHOOL PARA TALAB", "LAYER": "POND RENNOVATION", "State": "Chattisgarh", "Block": "Dantewada", "Village": "Dhurli" }, "geometry": { "type": "Point", "coordinates": [ 81.283768710512732, 18.787458608485711 ] } },
{ "type": "Feature", "properties": { "NAME": "BRIDGE AT JARLOVA NADI PUJARI PARA", "LAYER": "BRIDGE", "State": "Chattisgarh", "Block": "Dantewada", "Village": "Dhurli" }, "geometry": { "type": "Point", "coordinates": [ 81.277296955609273, 18.80919217697598 ] } },
{ "type": "Feature", "properties": { "NAME": "WHS RENNOVATION AT MATHA GUDI", "LAYER": "POND RENNOVATION", "State": "Chattisgarh", "Block": "Dantewada", "Village": "Dhurli" }, "geometry": { "type": "Point", "coordinates": [ 81.277680584685896, 18.799858760966881 ] } },
{ "type": "Feature", "properties": { "NAME": "STADIUM AT BOYS AND GIRLS HOSTEL", "LAYER": "PLAY GROUND", "State": "Chattisgarh", "Block": "Dantewada", "Village": "Dhurli" }, "geometry": { "type": "Point", "coordinates": [ 81.283614207301881, 18.783979984171783 ] } },
{ "type": "Feature", "properties": { "NAME": "CHECK DAM AT MUNDI PARA CHOWK", "LAYER": "CHECKDAM", "State": "Chattisgarh", "Block": "Dantewada", "Village": "Dhurli" }, "geometry": { "type": "Point", "coordinates": [ 81.28177117990333, 18.775707734908561 ] } },
{ "type": "Feature", "properties": { "NAME": "BOREWELL WITH SOLAR TANK AT SAMSAN GHAT PATEL PARA", "LAYER": "SOLAR WATERTANK", "State": "Chattisgarh", "Block": "Dantewada", "Village": "Dhurli" }, "geometry": { "type": "Point", "coordinates": [ 81.294505017848124, 18.799887654699788 ] } },
{ "type": "Feature", "properties": { "NAME": "WHS AT MUNDA KETH", "LAYER": "WHS", "State": "Chattisgarh", "Block": "Dantewada", "Village": "Dhurli" }, "geometry": { "type": "Point", "coordinates": [ 81.271407617852304, 18.796562847643631 ] } },
{ "type": "Feature", "properties": { "NAME": "WHS AT KOPEN BHAT KETH", "LAYER": "WHS", "State": "Chattisgarh", "Block": "Dantewada", "Village": "Dhurli" }, "geometry": { "type": "Point", "coordinates": [ 81.267650746290457, 18.80178175591994 ] } },
{ "type": "Feature", "properties": { "NAME": "CANAL  REPAIRING FROM BASANPUR TO DHURLI DOGI PARA", "LAYER": "CANAL  REPAIRING", "State": "Chattisgarh", "Block": "Dantewada", "Village": "Dhurli" }, "geometry": { "type": "Point", "coordinates": [ 81.273625190035801, 18.799358503146337 ] } },
{ "type": "Feature", "properties": { "NAME": "HIGH MAST LIGHT AT PUJARI PARA", "LAYER": "HIGH MUST LIGHT", "State": "Chattisgarh", "Block": "Dantewada", "Village": "Dhurli" }, "geometry": { "type": "Point", "coordinates": [ 81.275282433324222, 18.80633980558677 ] } },
{ "type": "Feature", "properties": { "NAME": "HIGH MAST LIGHT AT BHUPENDAR HOUSE PUJARI PARA", "LAYER": "HIGH MUST LIGHT", "State": "Chattisgarh", "Block": "Dantewada", "Village": "Dhurli" }, "geometry": { "type": "Point", "coordinates": [ 81.275377935209008, 18.807976852423707 ] } },
{ "type": "Feature", "properties": { "NAME": "SOLAR WATER TANK AT KUMARU HOUSE PUJARI PARA", "LAYER": "SOLAR WATERTANK", "State": "Chattisgarh", "Block": "Dantewada", "Village": "Dhurli" }, "geometry": { "type": "Point", "coordinates": [ 81.274375984994933, 18.80444921904931 ] } },
{ "type": "Feature", "properties": { "NAME": "HIGH MAST LIGHT AT KELE PAD PERMA PARA", "LAYER": "HIGH MUST LIGHT", "State": "Chattisgarh", "Block": "Dantewada", "Village": "Dhurli" }, "geometry": { "type": "Point", "coordinates": [ 81.275842070041577, 18.799270536932109 ] } },
{ "type": "Feature", "properties": { "NAME": "SOLAR WATETR TANK AT ANIL HOUSE KELE PAD", "LAYER": "SOLAR WATERTANK", "State": "Chattisgarh", "Block": "Dantewada", "Village": "Dhurli" }, "geometry": { "type": "Point", "coordinates": [ 81.276476147535035, 18.798900481133504 ] } },
{ "type": "Feature", "properties": { "NAME": "HIGH MAST LIGHT AT SYAM SINGH HOUSE PUJARI PARA", "LAYER": "HIGH MUST LIGHT", "State": "Chattisgarh", "Block": "Dantewada", "Village": "Dhurli" }, "geometry": { "type": "Point", "coordinates": [ 81.274121105528351, 18.808011701710271 ] } },
{ "type": "Feature", "properties": { "NAME": "HIGH MAST LIGHT AT PANCHAYAT OFFICE CHOWK", "LAYER": "HIGH MUST LIGHT", "State": "Chattisgarh", "Block": "Dantewada", "Village": "Dhurli" }, "geometry": { "type": "Point", "coordinates": [ 81.287528488994454, 18.793273560046085 ] } },
{ "type": "Feature", "properties": { "NAME": "HIGH MAST LIGHT AT UMES HOUSE PERMA PARA", "LAYER": "HIGH MUST LIGHT", "State": "Chattisgarh", "Block": "Dantewada", "Village": "Dhurli" }, "geometry": { "type": "Point", "coordinates": [ 81.284960447106258, 18.794240871624044 ] } },
{ "type": "Feature", "properties": { "NAME": "SOLAR WATER TANK AT CHANDU HOUSE PERMA PARA", "LAYER": "SOLAR WATERTANK", "State": "Chattisgarh", "Block": "Dantewada", "Village": "Dhurli" }, "geometry": { "type": "Point", "coordinates": [ 81.287682656056731, 18.794738242064149 ] } },
{ "type": "Feature", "properties": { "NAME": "HIGH MAST LIGHT AT KUMARU HOUSE PUJARI PARA", "LAYER": "HIGH MUST LIGHT", "State": "Chattisgarh", "Block": "Dantewada", "Village": "Dhurli" }, "geometry": { "type": "Point", "coordinates": [ 81.274127578968844, 18.80445809148015 ] } },
{ "type": "Feature", "properties": { "NAME": "SOLAR WATER TANK AT JOGA HOUSE PERMA PARA", "LAYER": "SOLAR WATERTANK", "State": "Chattisgarh", "Block": "Dantewada", "Village": "Dhurli" }, "geometry": { "type": "Point", "coordinates": [ 81.284356497827346, 18.795414935591914 ] } },
{ "type": "Feature", "properties": { "NAME": "HIGH MAST LIGHT AT BUTU HOUSE DOGI PARA", "LAYER": "HIGH MUST LIGHT", "State": "Chattisgarh", "Block": "Dantewada", "Village": "Dhurli" }, "geometry": { "type": "Point", "coordinates": [ 81.28526530018074, 18.802839012706347 ] } },
{ "type": "Feature", "properties": { "NAME": "SOLAR WATER TANK AT ASHOK HOUSEDOGI PARA", "LAYER": "SOLAR WATERTANK", "State": "Chattisgarh", "Block": "Dantewada", "Village": "Dhurli" }, "geometry": { "type": "Point", "coordinates": [ 81.290204213856995, 18.806813260147845 ] } },
{ "type": "Feature", "properties": { "NAME": "HIGH AST LIGHT AT RAJU HOUSE DOGI PARA", "LAYER": "HIGH MUST LIGHT", "State": "Chattisgarh", "Block": "Dantewada", "Village": "Dhurli" }, "geometry": { "type": "Point", "coordinates": [ 81.289763870871298, 18.806543500509537 ] } },
{ "type": "Feature", "properties": { "NAME": "HIGH MAST LIGHT AT RAJESH HOUSE PATEL PARA-1", "LAYER": "HIGH MUST LIGHT", "State": "Chattisgarh", "Block": "Dantewada", "Village": "Dhurli" }, "geometry": { "type": "Point", "coordinates": [ 81.288533755176417, 18.79315507315075 ] } },
{ "type": "Feature", "properties": { "NAME": "SOLAR WATER TANK AT HUNGA HOUSE DOGI PARA", "LAYER": "SOLAR WATERTANK", "State": "Chattisgarh", "Block": "Dantewada", "Village": "Dhurli" }, "geometry": { "type": "Point", "coordinates": [ 81.285146736716285, 18.8032984462832 ] } },
{ "type": "Feature", "properties": { "NAME": "HIGH MAST LIGHT AT MASO HOUSE PATEL PARA-1", "LAYER": "HIGH MUST LIGHT", "State": "Chattisgarh", "Block": "Dantewada", "Village": "Dhurli" }, "geometry": { "type": "Point", "coordinates": [ 81.29213840287548, 18.792488072015789 ] } },
{ "type": "Feature", "properties": { "NAME": "HIGH MAST LIGHT AT ARVIND HOUSE PATEL PARA-1", "LAYER": "HIGH MUST LIGHT", "State": "Chattisgarh", "Block": "Dantewada", "Village": "Dhurli" }, "geometry": { "type": "Point", "coordinates": [ 81.295461771664648, 18.793702125806441 ] } },
{ "type": "Feature", "properties": { "NAME": "HIGH MAST LIGHT AT KUMA HOUSE PATEL PARA-1", "LAYER": "HIGH MUST LIGHT", "State": "Chattisgarh", "Block": "Dantewada", "Village": "Dhurli" }, "geometry": { "type": "Point", "coordinates": [ 81.296939230006203, 18.794139847221523 ] } },
{ "type": "Feature", "properties": { "NAME": "HIGH MAST LIGHT AT GOPI HOUSE PATEL PARA-1", "LAYER": "HIGH MUST LIGHT", "State": "Chattisgarh", "Block": "Dantewada", "Village": "Dhurli" }, "geometry": { "type": "Point", "coordinates": [ 81.295304477398275, 18.794549507621522 ] } },
{ "type": "Feature", "properties": { "NAME": "HIGH MAST LIGHT AT AJAY HOUSE PATEL PARA-1", "LAYER": "HIGH MUST LIGHT", "State": "Chattisgarh", "Block": "Dantewada", "Village": "Dhurli" }, "geometry": { "type": "Point", "coordinates": [ 81.293668537428587, 18.79128021229943 ] } },
{ "type": "Feature", "properties": { "NAME": "SOLAR WATER TANK AT GOPI HOUSE PATEL PARA-2", "LAYER": "SOLAR WATERTANK", "State": "Chattisgarh", "Block": "Dantewada", "Village": "Dhurli" }, "geometry": { "type": "Point", "coordinates": [ 81.295030998144796, 18.794526804812541 ] } },
{ "type": "Feature", "properties": { "NAME": "SOLAR WATER TANK AT AJAY HOUSE PATEL PARA-1", "LAYER": "SOLAR WATERTANK", "State": "Chattisgarh", "Block": "Dantewada", "Village": "Dhurli" }, "geometry": { "type": "Point", "coordinates": [ 81.293492161068272, 18.79128517633303 ] } },
{ "type": "Feature", "properties": { "NAME": "CHECK DAM AT PANDEN METTA", "LAYER": "CHECKDAM", "State": "Chattisgarh", "Block": "Dantewada", "Village": "Dhurli" }, "geometry": { "type": "Point", "coordinates": [ 81.303499840186404, 18.78010066910009 ] } },
{ "type": "Feature", "properties": { "NAME": "SOLAR WATER TANK AT SANNU HOUSE PATEL PARA-1", "LAYER": "SOLAR WATERTANK", "State": "Chattisgarh", "Block": "Dantewada", "Village": "Dhurli" }, "geometry": { "type": "Point", "coordinates": [ 81.290221414040289, 18.792324205396501 ] } },
{ "type": "Feature", "properties": { "NAME": "HIGH MAST LIGHT AT BUDHRAM HOUSE MUNDI PARA", "LAYER": "HIGH MUST LIGHT", "State": "Chattisgarh", "Block": "Dantewada", "Village": "Dhurli" }, "geometry": { "type": "Point", "coordinates": [ 81.291417894032634, 18.776111428275243 ] } },
{ "type": "Feature", "properties": { "NAME": "HIGH MAST LIGHT AT ANAGNWADIHOUSE MUNDI PARA", "LAYER": "HIGH MUST LIGHT", "State": "Chattisgarh", "Block": "Dantewada", "Village": "Dhurli" }, "geometry": { "type": "Point", "coordinates": [ 81.293980292645372, 18.776169275944621 ] } },
{ "type": "Feature", "properties": { "NAME": "HIGH MAST LIGHT AT SOMA HOUSE LOHARA PARA", "LAYER": "HIGH MUST LIGHT", "State": "Chattisgarh", "Block": "Dantewada", "Village": "Dhurli" }, "geometry": { "type": "Point", "coordinates": [ 81.304276209104671, 18.767485124680043 ] } },
{ "type": "Feature", "properties": { "NAME": "HIGH MAST LIGHT AT DASARU HOUSE LEKAM PARA", "LAYER": "HIGH MUST LIGHT", "State": "Chattisgarh", "Block": "Dantewada", "Village": "Dhurli" }, "geometry": { "type": "Point", "coordinates": [ 81.298454836034708, 18.7706987868652 ] } },
{ "type": "Feature", "properties": { "NAME": "SOLAR WATER TANK AT ANGAN WADI MUNDI PARA", "LAYER": "SOLAR WATERTANK", "State": "Chattisgarh", "Block": "Dantewada", "Village": "Dhurli" }, "geometry": { "type": "Point", "coordinates": [ 81.294059488492195, 18.7761650493342 ] } },
{ "type": "Feature", "properties": { "NAME": "HIGH MAST LIGHT AT NANGA PARA CHOWK", "LAYER": "HIGH MUST LIGHT", "State": "Chattisgarh", "Block": "Dantewada", "Village": "Dhurli" }, "geometry": { "type": "Point", "coordinates": [ 81.28446213433115, 18.778051397796066 ] } },
{ "type": "Feature", "properties": { "NAME": "SOLAR WATER TANK AT RAMESH HOUSE", "LAYER": "SOLAR WATERTANK", "State": "Chattisgarh", "Block": "Dantewada", "Village": "Dhurli" }, "geometry": { "type": "Point", "coordinates": [ 81.286936354977044, 18.77812455335842 ] } },
{ "type": "Feature", "properties": { "NAME": "HIGH MAST LIGHT AT BOYS AND GIRLS HOSTEL", "LAYER": "HIGH MUST LIGHT", "State": "Chattisgarh", "Block": "Dantewada", "Village": "Dhurli" }, "geometry": { "type": "Point", "coordinates": [ 81.284492387049013, 18.784065922701028 ] } },
{ "type": "Feature", "properties": { "NAME": "HIGH MAST LIGHT AT KANYA ASRAM CHOWK", "LAYER": "HIGH MUST LIGHT", "State": "Chattisgarh", "Block": "Dantewada", "Village": "Dhurli" }, "geometry": { "type": "Point", "coordinates": [ 81.286517159811964, 18.790321218029852 ] } },
{ "type": "Feature", "properties": { "NAME": "HIGH MAST LIGHT AT SANTHU HOUSE SCHOOL PARA", "LAYER": "HIGH MUST LIGHT", "State": "Chattisgarh", "Block": "Dantewada", "Village": "Dhurli" }, "geometry": { "type": "Point", "coordinates": [ 81.289095635255464, 18.789767569044837 ] } },
{ "type": "Feature", "properties": { "NAME": "SOLAR WATER TANK AT ANIL HOUSE TITEM PARA", "LAYER": "SOLAR WATERTANK", "State": "Chattisgarh", "Block": "Dantewada", "Village": "Dhurli" }, "geometry": { "type": "Point", "coordinates": [ 81.28918289031138, 18.789108835969849 ] } },
{ "type": "Feature", "properties": { "NAME": "SOLAR WATER TANK AT SUDRU HOUSE SCHOOL PARA", "LAYER": "SOLAR WATERTANK", "State": "Chattisgarh", "Block": "Dantewada", "Village": "Dhurli" }, "geometry": { "type": "Point", "coordinates": [ 81.288803082937903, 18.790953499105356 ] } },
{ "type": "Feature", "properties": { "NAME": "HIGH MAST LIGHT AT RAJU HOUSE SCHOOL PARA CHOWK", "LAYER": "HIGH MUST LIGHT", "State": "Chattisgarh", "Block": "Dantewada", "Village": "Dhurli" }, "geometry": { "type": "Point", "coordinates": [ 81.286846738670704, 18.791527633203131 ] } },
{ "type": "Feature", "properties": { "NAME": "HIGH MAST LIGHT AT MARKAM CHOWK TITEM PARA", "LAYER": "HIGH MUST LIGHT", "State": "Chattisgarh", "Block": "Dantewada", "Village": "Dhurli" }, "geometry": { "type": "Point", "coordinates": [ 81.289415492605187, 18.787511689269365 ] } },
{ "type": "Feature", "properties": { "NAME": "WHS AT CHOTA DHURUM", "LAYER": "WHS", "State": "Chattisgarh", "Block": "Dantewada", "Village": "Dhurli" }, "geometry": { "type": "Point", "coordinates": [ 81.302526844781227, 18.797462314839265 ] } },
{ "type": "Feature", "properties": { "NAME": "CHECK DAM AT DHUR METTA", "LAYER": "CHECKDAM", "State": "Chattisgarh", "Block": "Dantewada", "Village": "Dhurli" }, "geometry": { "type": "Point", "coordinates": [ 81.300594406735129, 18.79435532924083 ] } },
{ "type": "Feature", "properties": { "NAME": "SMALL CHECK DAM 10 NO'S PANDEN METTA", "LAYER": "CHECKDAM", "State": "Chattisgarh", "Block": "Dantewada", "Village": "Dhurli" }, "geometry": { "type": "Point", "coordinates": [ 81.301468824889596, 18.783260348585092 ] } },
{ "type": "Feature", "properties": { "NAME": "WHS AT SUVAR KETH", "LAYER": "WHS", "State": "Chattisgarh", "Block": "Dantewada", "Village": "Dhurli" }, "geometry": { "type": "Point", "coordinates": [ 81.305774733539835, 18.77383359514149 ] } },
{ "type": "Feature", "properties": { "NAME": "WHS AT QUARY", "LAYER": "WHS", "State": "Chattisgarh", "Block": "Dantewada", "Village": "Dhurli" }, "geometry": { "type": "Point", "coordinates": [ 81.287790239869679, 18.78301086170509 ] } },
{ "type": "Feature", "properties": { "NAME": "CHECK DAM NEAR ANGANWADI MUNDI PARA", "LAYER": "CHECKDAM", "State": "Chattisgarh", "Block": "Dantewada", "Village": "Dhurli" }, "geometry": { "type": "Point", "coordinates": [ 81.294420837173448, 18.777247237222099 ] } },
{ "type": "Feature", "properties": { "NAME": "DOME SHED AT GOPI HOUSE PATEL PARA 2", "LAYER": "DOME SHED", "State": "Chattisgarh", "Block": "Dantewada", "Village": "Dhurli" }, "geometry": { "type": "Point", "coordinates": [ 81.295329637987052, 18.794436344979029 ] } },
{ "type": "Feature", "properties": { "NAME": "DOME SHED AT RAKESH HOUSE PATEL PARA 1", "LAYER": "DOME SHED", "State": "Chattisgarh", "Block": "Dantewada", "Village": "Dhurli" }, "geometry": { "type": "Point", "coordinates": [ 81.290173238804115, 18.7921893418624 ] } },
{ "type": "Feature", "properties": { "NAME": "CHECK DAM AT VETI PARA MUNDI PARA", "LAYER": "CHECKDAM", "State": "Chattisgarh", "Block": "Dantewada", "Village": "Dhurli" }, "geometry": { "type": "Point", "coordinates": [ 81.29790044071639, 18.776264872830122 ] } },
{ "type": "Feature", "properties": { "NAME": "CHECK DAM AT MIDKOM", "LAYER": "CHECKDAM", "State": "Chattisgarh", "Block": "Dantewada", "Village": "Dhurli" }, "geometry": { "type": "Point", "coordinates": [ 81.30151834820083, 18.776544121837247 ] } },
{ "type": "Feature", "properties": { "NAME": "KOSHA NANDA TALA AREA SPILLWAYS", "LAYER": "SPILL WAY", "State": "Chattisgarh", "Block": "Dantewada", "Village": "Nerli" }, "geometry": { "type": "Point", "coordinates": [ 81.265418514060968, 18.722788393347706 ] } },
{ "type": "Feature", "properties": { "NAME": "CONCRETE CHECK DAM AT TALIN GUDI", "LAYER": "CHECKDAM", "State": "Chattisgarh", "Block": "Dantewada", "Village": "Nerli" }, "geometry": { "type": "Point", "coordinates": [ 81.259065166949057, 18.728821931957359 ] } },
{ "type": "Feature", "properties": { "NAME": "WHS AT LOHA KADAN (RAGHUVEER)", "LAYER": "WHS", "State": "Chattisgarh", "Block": "Dantewada", "Village": "Nerli" }, "geometry": { "type": "Point", "coordinates": [ 81.266793298857067, 18.716964677973817 ] } },
{ "type": "Feature", "properties": { "NAME": "LAND REPAIR 20 ACRE KOSHA NADA TALAB AREA( DOBE SIDE)", "LAYER": "LAND REPAIR", "State": "Chattisgarh", "Block": "Dantewada", "Village": "Nerli" }, "geometry": { "type": "Point", "coordinates": [ 81.26251827275695, 18.720614706986435 ] } },
{ "type": "Feature", "properties": { "NAME": "WHS AT UJJI LAND", "LAYER": "WHS", "State": "Chattisgarh", "Block": "Dantewada", "Village": "Nerli" }, "geometry": { "type": "Point", "coordinates": [ 81.258717211028099, 18.72614669265889 ] } },
{ "type": "Feature", "properties": { "NAME": "WHS AT SANJU LAND SIDE", "LAYER": "WHS", "State": "Chattisgarh", "Block": "Dantewada", "Village": "Nerli" }, "geometry": { "type": "Point", "coordinates": [ 81.258875443821694, 18.7327018776523 ] } },
{ "type": "Feature", "properties": { "NAME": "CONCRETE CHECK DAM AT THAR BAT", "LAYER": "CHECKDAM", "State": "Chattisgarh", "Block": "Dantewada", "Village": "Nerli" }, "geometry": { "type": "Point", "coordinates": [ 81.273912060740841, 18.730884946187288 ] } },
{ "type": "Feature", "properties": { "NAME": "SMALL CHECK DAM AT DINESH TELAM LAND", "LAYER": "CHECKDAM", "State": "Chattisgarh", "Block": "Dantewada", "Village": "Nerli" }, "geometry": { "type": "Point", "coordinates": [ 81.262232443884159, 18.728424067405797 ] } },
{ "type": "Feature", "properties": { "NAME": "WHS AT EDO BHAT", "LAYER": "WHS", "State": "Chattisgarh", "Block": "Dantewada", "Village": "Nerli" },