{
"type": "FeatureCollection",
"name": "Plotboundary",
"crs": { "type": "name", "properties": { "name": "urn:ogc:def:crs:OGC:1.3:CRS84" } },
"features": [
{ "type": "Feature", "properties": { "NAME": "SC COLONY", "LAYER": "SC COLONY", "State": "Karnataka", "Block": "Sandur", "Village": "Kammathur" }, "geometry": { "type": "Point", "coordinates": [ 76.617002851531396, 15.018022029842868 ] } },
{ "type": "Feature", "properties": { "NAME": "GENERAL COLONY", "LAYER": "GENERAL COLONY", "State": "Karnataka", "Block": "Sandur", "Village": "Kammathur" }, "geometry": { "type": "Point", "coordinates": [ 76.61603651477796, 15.017718757524534 ] } },
{ "type": "Feature", "properties": { "NAME": "NAULUTI", "LAYER": "NAULUTI", "State": "Karnataka", "Block": "Sandur", "Village": "Nauluti" }, "geometry": { "type": "Point", "coordinates": [ 76.630768864786134, 15.025506961832477 ] } },
{ "type": "Feature", "properties": { "NAME": "ST COLONY", "LAYER": "ST COLONY", "State": "Karnataka", "Block": "Sandur", "Village": "Ubbalagundi" }, "geometry": { "type": "Point", "coordinates": [ 76.654687916063779, 15.050394010422279 ] } },
{ "type": "Feature", "properties": { "NAME": "SC COLONY", "LAYER": "SC COLONY", "State": "Karnataka", "Block": "Sandur", "Village": "Ubbalagundi" }, "geometry": { "type": "Point", "coordinates": [ 76.655357986151444, 15.049289751514372 ] } },
{ "type": "Feature", "properties": { "NAME": "GENERAL COLONY", "LAYER": "GENERAL COLONY", "State": "Karnataka", "Block": "Sandur", "Village": "Ubbalagundi" }, "geometry": { "type": "Point", "coordinates": [ 76.654004270648642, 15.049922914744329 ] } },
{ "type": "Feature", "properties": { "NAME": "DASRATH PARA", "LAYER": "DASRATH PARA", "State": "Chattisgarh", "Block": "Dantewada", "Village": "Badebacheli" }, "geometry": { "type": "Point", "coordinates": [ 81.256969014744115, 18.715282759647248 ] } },
{ "type": "Feature", "properties": { "NAME": "KUA PARA", "LAYER": "KUA PARA", "State": "Chattisgarh", "Block": "Dantewada", "Village": "Badebacheli" }, "geometry": { "type": "Point", "coordinates": [ 81.27431432978041, 18.708933045082411 ] } },
{ "type": "Feature", "properties": { "NAME": "KUA PARA", "LAYER": "KUA PARA", "State": "Chattisgarh", "Block": "Dantewada", "Village": "Badebacheli" }, "geometry": { "type": "Point", "coordinates": [ 81.276786912384949, 18.711978727567431 ] } },
{ "type": "Feature", "properties": { "NAME": "PATEL PARA", "LAYER": "PATEL PARA", "State": "Chattisgarh", "Block": "Dantewada", "Village": "Badebacheli" }, "geometry": { "type": "Point", "coordinates": [ 81.276522178149222, 18.69852296457945 ] } },
{ "type": "Feature", "properties": { "NAME": "MAHARA PARA", "LAYER": "MAHARA PARA", "State": "Chattisgarh", "Block": "Dantewada", "Village": "Badebacheli" }, "geometry": { "type": "Point", "coordinates": [ 81.276183585863109, 18.695427663833929 ] } },
{ "type": "Feature", "properties": { "NAME": "PATEL PARA (KALMU PARA)", "LAYER": "PATEL PARA (KALMU PA*", "State": "Chattisgarh", "Block": "Dantewada", "Village": "Badebacheli" }, "geometry": { "type": "Point", "coordinates": [ 81.280800365514466, 18.699514419289425 ] } },
{ "type": "Feature", "properties": { "NAME": "MAJHI PARA", "LAYER": "MAJHI PARA", "State": "Chattisgarh", "Block": "Dantewada", "Village": "Badebacheli" }, "geometry": { "type": "Point", "coordinates": [ 81.272924410603338, 18.696508023419781 ] } },
{ "type": "Feature", "properties": { "NAME": "MAJHI PARA", "LAYER": "MAJHI PARA", "State": "Chattisgarh", "Block": "Dantewada", "Village": "Badebacheli" }, "geometry": { "type": "Point", "coordinates": [ 81.27198724187636, 18.693603191932606 ] } },
{ "type": "Feature", "properties": { "NAME": "KIDUA PARA", "LAYER": "KIDUA PARA", "State": "Chattisgarh", "Block": "Dantewada", "Village": "Badebacheli" }, "geometry": { "type": "Point", "coordinates": [ 81.28325226826864, 18.692207073336039 ] } },
{ "type": "Feature", "properties": { "NAME": "MAHARA PARA", "LAYER": "MAHARA PARA", "State": "Chattisgarh", "Block": "Dantewada", "Village": "Badebacheli" }, "geometry": { "type": "Point", "coordinates": [ 81.279091534819685, 18.693570474753319 ] } },
{ "type": "Feature", "properties": { "NAME": "MAHARA PARA", "LAYER": "MAHARA PARA", "State": "Chattisgarh", "Block": "Dantewada", "Village": "Badebacheli" }, "geometry": { "type": "Point", "coordinates": [ 81.281046836098639, 18.691899610322785 ] } },
{ "type": "Feature", "properties": { "NAME": "PUJARI PARA", "LAYER": "PUJARI PARA", "State": "Chattisgarh", "Block": "Dantewada", "Village": "Badebacheli" }, "geometry": { "type": "Point", "coordinates": [ 81.276113891806972, 18.692584242750804 ] } },
{ "type": "Feature", "properties": { "NAME": "KUMAR PARA", "LAYER": "KUMAR PARA", "State": "Chattisgarh", "Block": "Dantewada", "Village": "Badebacheli" }, "geometry": { "type": "Point", "coordinates": [ 81.274954447145262, 18.686809651213672 ] } },
{ "type": "Feature", "properties": { "NAME": "KUMAR PARA (DUMA PARA)", "LAYER": "KUMAR PARA (DUMA PAR*", "State": "Chattisgarh", "Block": "Dantewada", "Village": "Badebacheli" }, "geometry": { "type": "Point", "coordinates": [ 81.281741491696579, 18.682870835533269 ] } },
{ "type": "Feature", "properties": { "NAME": "KAYA PARA", "LAYER": "KAYA PARA", "State": "Chattisgarh", "Block": "Dantewada", "Village": "Badebacheli" }, "geometry": { "type": "Point", "coordinates": [ 81.284335595294095, 18.685235076167547 ] } },
{ "type": "Feature", "properties": { "NAME": "CHALKI PARA", "LAYER": "CHALKI PARA", "State": "Chattisgarh", "Block": "Dantewada", "Village": "Badebacheli" }, "geometry": { "type": "Point", "coordinates": [ 81.268446822270647, 18.685214595138081 ] } },
{ "type": "Feature", "properties": { "NAME": "KAYA PARA", "LAYER": "KAYA PARA", "State": "Chattisgarh", "Block": "Dantewada", "Village": "Badebacheli" }, "geometry": { "type": "Point", "coordinates": [ 81.286504712746662, 18.68340449889871 ] } },
{ "type": "Feature", "properties": { "NAME": "TAMO PARA", "LAYER": "TAMO PARA", "State": "Chattisgarh", "Block": "Dantewada", "Village": "Badebacheli" }, "geometry": { "type": "Point", "coordinates": [ 81.261974386475572, 18.685790538663891 ] } },
{ "type": "Feature", "properties": { "NAME": "LATI PARA", "LAYER": "LATI PARA", "State": "Chattisgarh", "Block": "Dantewada", "Village": "Badebacheli" }, "geometry": { "type": "Point", "coordinates": [ 81.260769291581099, 18.690537025064998 ] } },
{ "type": "Feature", "properties": { "NAME": "PANDU PARA", "LAYER": "PANDU PARA", "State": "Chattisgarh", "Block": "Dantewada", "Village": "Badebacheli" }, "geometry": { "type": "Point", "coordinates": [ 81.258320731309951, 18.69251431672448 ] } },
{ "type": "Feature", "properties": { "NAME": "LATI PARA", "LAYER": "LATI PARA", "State": "Chattisgarh", "Block": "Dantewada", "Village": "Badebacheli" }, "geometry": { "type": "Point", "coordinates": [ 81.257641757157387, 18.69182688773417 ] } },
{ "type": "Feature", "properties": { "NAME": "LATI PARA", "LAYER": "LATI PARA", "State": "Chattisgarh", "Block": "Dantewada", "Village": "Badebacheli" }, "geometry": { "type": "Point", "coordinates": [ 81.264364611895019, 18.692023633790175 ] } },
{ "type": "Feature", "properties": { "NAME": "PANDU PARA", "LAYER": "PANDU PARA", "State": "Chattisgarh", "Block": "Dantewada", "Village": "Badebacheli" }, "geometry": { "type": "Point", "coordinates": [ 81.26264778092029, 18.697812041656899 ] } },
{ "type": "Feature", "properties": { "NAME": "PANDU PARA", "LAYER": "PANDU PARA", "State": "Chattisgarh", "Block": "Dantewada", "Village": "Badebacheli" }, "geometry": { "type": "Point", "coordinates": [ 81.264193083783169, 18.695468041762869 ] } },
{ "type": "Feature", "properties": { "NAME": "PANDU PARA", "LAYER": "PANDU PARA", "State": "Chattisgarh", "Block": "Dantewada", "Village": "Badebacheli" }, "geometry": { "type": "Point", "coordinates": [ 81.261846731999142, 18.693893981952808 ] } },
{ "type": "Feature", "properties": { "NAME": "BADE PARA", "LAYER": "BADE PARA", "State": "Chattisgarh", "Block": "Dantewada", "Village": "Badebacheli" }, "geometry": { "type": "Point", "coordinates": [ 81.263712317826602, 18.70197272695545 ] } },
{ "type": "Feature", "properties": { "NAME": "NANGU PARA", "LAYER": "NANGU PARA", "State": "Chattisgarh", "Block": "Dantewada", "Village": "Badebacheli" }, "geometry": { "type": "Point", "coordinates": [ 81.254396319988629, 18.697229381546023 ] } },
{ "type": "Feature", "properties": { "NAME": "TAMO PARA", "LAYER": "TAMO PARA", "State": "Chattisgarh", "Block": "Dantewada", "Village": "Badebacheli" }, "geometry": { "type": "Point", "coordinates": [ 81.25708502128245, 18.681704590089723 ] } },
{ "type": "Feature", "properties": { "NAME": "NANGA PARA", "LAYER": "NANGA PARA", "State": "Chattisgarh", "Block": "Dantewada", "Village": "Dhurli" }, "geometry": { "type": "Point", "coordinates": [ 81.286434911377697, 18.778193476061045 ] } },
{ "type": "Feature", "properties": { "NAME": "SCHOOL PARA", "LAYER": "SCHOOL PARA", "State": "Chattisgarh", "Block": "Dantewada", "Village": "Dhurli" }, "geometry": { "type": "Point", "coordinates": [ 81.288278638855004, 18.790101045330559 ] } },
{ "type": "Feature", "properties": { "NAME": "TITEM PARA", "LAYER": "TITEM PARA", "State": "Chattisgarh", "Block": "Dantewada", "Village": "Dhurli" }, "geometry": { "type": "Point", "coordinates": [ 81.291681839787046, 18.787092523734422 ] } },
{ "type": "Feature", "properties": { "NAME": "PUJARI PARA", "LAYER": "PUJARI PARA", "State": "Chattisgarh", "Block": "Dantewada", "Village": "Dhurli" }, "geometry": { "type": "Point", "coordinates": [ 81.275297029151332, 18.807006186695251 ] } },
{ "type": "Feature", "properties": { "NAME": "DOGI PARA", "LAYER": "DOGI PARA", "State": "Chattisgarh", "Block": "Dantewada", "Village": "Dhurli" }, "geometry": { "type": "Point", "coordinates": [ 81.285921578262901, 18.802967174195349 ] } },
{ "type": "Feature", "properties": { "NAME": "PERMAPARA (KELE PAD)", "LAYER": "PERMAPARA (KELE PAD)", "State": "Chattisgarh", "Block": "Dantewada", "Village": "Dhurli" }, "geometry": { "type": "Point", "coordinates": [ 81.277026630019591, 18.798510534265937 ] } },
{ "type": "Feature", "properties": { "NAME": "PERMA PARA", "LAYER": "PERMA PARA", "State": "Chattisgarh", "Block": "Dantewada", "Village": "Dhurli" }, "geometry": { "type": "Point", "coordinates": [ 81.284280250893417, 18.793759992325331 ] } },
{ "type": "Feature", "properties": { "NAME": "PATEL PARA-1", "LAYER": "PATEL PARA-1", "State": "Chattisgarh", "Block": "Dantewada", "Village": "Dhurli" }, "geometry": { "type": "Point", "coordinates": [ 81.290107487723091, 18.792431473071392 ] } },
{ "type": "Feature", "properties": { "NAME": "PATEL PARA-2", "LAYER": "PATEL PARA-2", "State": "Chattisgarh", "Block": "Dantewada", "Village": "Dhurli" }, "geometry": { "type": "Point", "coordinates": [ 81.292590822599507, 18.794366844380633 ] } },
{ "type": "Feature", "properties": { "NAME": "Munda Para", "LAYER": "Munda Para", "State": "Chattisgarh", "Block": "Dantewada", "Village": "Dhurli" }, "geometry": { "type": "Point", "coordinates": [ 81.293693495758376, 18.775931903380283 ] } },
{ "type": "Feature", "properties": { "NAME": "TEKA PARA", "LAYER": "TEKA PARA", "State": "Chattisgarh", "Block": "Kuakonda", "Village": "Hiroli" }, "geometry": { "type": "Point", "coordinates": [ 81.26677661853212, 18.589409273769579 ] } },
{ "type": "Feature", "properties": { "NAME": "TOYA PARA", "LAYER": "TOYA PARA", "State": "Chattisgarh", "Block": "Kuakonda", "Village": "Hiroli" }, "geometry": { "type": "Point", "coordinates": [ 81.266794461969823, 18.593140743074802 ] } },
{ "type": "Feature", "properties": { "NAME": "PATEL PARA", "LAYER": "PATEL PARA", "State": "Chattisgarh", "Block": "Kuakonda", "Village": "Hiroli" }, "geometry": { "type": "Point", "coordinates": [ 81.271351410145954, 18.591394200162799 ] } },
{ "type": "Feature", "properties": { "NAME": "BARRE PARA", "LAYER": "BARRE PARA", "State": "Chattisgarh", "Block": "Kuakonda", "Village": "Hiroli" }, "geometry": { "type": "Point", "coordinates": [ 81.267602227974308, 18.584859778492206 ] } },
{ "type": "Feature", "properties": { "NAME": "DOKKA PARA", "LAYER": "DOKKA PARA", "State": "Chattisgarh", "Block": "Kuakonda", "Village": "Hiroli" }, "geometry": { "type": "Point", "coordinates": [ 81.246716121246948, 18.576033284462401 ] } },
{ "type": "Feature", "properties": { "NAME": "DEVGUDI PARA", "LAYER": "DEVGUDI PARA", "State": "Chattisgarh", "Block": "Kuakonda", "Village": "Hiroli" }, "geometry": { "type": "Point", "coordinates": [ 81.261967699179451, 18.594689932253324 ] } },
{ "type": "Feature", "properties": { "NAME": "PADKAL VEDA", "LAYER": "PADKAL VEDA", "State": "Chattisgarh", "Block": "Kuakonda", "Village": "Hiroli" }, "geometry": { "type": "Point", "coordinates": [ 81.260022506877675, 18.587317405603343 ] } },
{ "type": "Feature", "properties": { "NAME": "LANCE KUYYAR", "LAYER": "LANCE KUYYAR", "State": "Chattisgarh", "Block": "Kuakonda", "Village": "Hiroli" }, "geometry": { "type": "Point", "coordinates": [ 81.256995563562953, 18.58171137914951 ] } },
{ "type": "Feature", "properties": { "NAME": "SCHOOL PARA", "LAYER": "SCHOOL PARA", "State": "Chattisgarh", "Block": "Dantewada", "Village": "Nerli" }, "geometry": { "type": "Point", "coordinates": [ 81.264984620175468, 18.726305307931131 ] } },
{ "type": "Feature", "properties": { "NAME": "PODIYA PARA", "LAYER": "PODIYA PARA", "State": "Chattisgarh", "Block": "Dantewada", "Village": "Nerli" }, "geometry": { "type": "Point", "coordinates": [ 81.269895356790641, 18.725876009887347 ] } },
{ "type": "Feature", "properties": { "NAME": "MAHARA PARA", "LAYER": "MAHARA PARA", "State": "Chattisgarh", "Block": "Dantewada", "Village": "Nerli" }, "geometry": { "type": "Point", "coordinates": [ 81.273380507234421, 18.724706503881841 ] } },
{ "type": "Feature", "properties": { "NAME": "KOTWAR PARA", "LAYER": "KOTWAR PARA", "State": "Chattisgarh", "Block": "Dantewada", "Village": "Nerli" }, "geometry": { "type": "Point", "coordinates": [ 81.261079072773043, 18.726405390070443 ] } },
{ "type": "Feature", "properties": { "NAME": "OYAM PARA", "LAYER": "OYAM PARA", "State": "Chattisgarh", "Block": "Dantewada", "Village": "Nerli" }, "geometry": { "type": "Point", "coordinates": [ 81.263472024108694, 18.735082005818906 ] } },
{ "type": "Feature", "properties": { "NAME": "AYATU PARA", "LAYER": "AYATU PARA", "State": "Chattisgarh", "Block": "Dantewada", "Village": "Nerli" }, "geometry": { "type": "Point", "coordinates": [ 81.266588250178685, 18.737897617787574 ] } },
{ "type": "Feature", "properties": { "NAME": "PATEL PARA", "LAYER": "PATEL PARA", "State": "Chattisgarh", "Block": "Dantewada", "Village": "Nerli" }, "geometry": { "type": "Point", "coordinates": [ 81.269065294334155, 18.73245574957091 ] } },
{ "type": "Feature", "properties": { "NAME": "Sarpanch Para", "LAYER": "Sarpanch Para", "State": "Chattisgarh", "Block": "Kuakonda", "Village": "Cholnar" }, "geometry": { "type": "Point", "coordinates": [ 81.319883646037141, 18.621661596519175 ] } },
{ "type": "Feature", "properties": { "NAME": "SARPANCH PARA", "LAYER": "SARPANCH PARA", "State": "Chattisgarh", "Block": "Kuakonda", "Village": "Cholnar" }, "geometry": { "type": "Point", "coordinates": [ 81.316009349635991, 18.618310889054449 ] } },
{ "type": "Feature", "properties": { "NAME": "PATEL PARA", "LAYER": "PATEL PARA", "State": "Chattisgarh", "Block": "Kuakonda", "Village": "Cholnar" }, "geometry": { "type": "Point", "coordinates": [ 81.304952741855189, 18.619478579702189 ] } },
{ "type": "Feature", "properties": { "NAME": "JUNA PARA", "LAYER": "JUNA PARA", "State": "Chattisgarh", "Block": "Kuakonda", "Village": "Cholnar" }, "geometry": { "type": "Point", "coordinates": [ 81.314913596229772, 18.628449934740118 ] } },
{ "type": "Feature", "properties": { "NAME": "PATEL PARA", "LAYER": "PATEL PARA", "State": "Chattisgarh", "Block": "Kuakonda", "Village": "Samalwar" }, "geometry": { "type": "Point", "coordinates": [ 81.314338479139977, 18.606655985353292 ] } },
{ "type": "Feature", "properties": { "NAME": "VICHA PARA", "LAYER": "VICHA PARA", "State": "Chattisgarh", "Block": "Kuakonda", "Village": "Samalwar" }, "geometry": { "type": "Point", "coordinates": [ 81.303851165921841, 18.602951253430959 ] } },
{ "type": "Feature", "properties": { "NAME": "AVGATA PARA", "LAYER": "AVGATA PARA", "State": "Chattisgarh", "Block": "Kuakonda", "Village": "Samalwar" }, "geometry": { "type": "Point", "coordinates": [ 81.333072148181259, 18.585561871904371 ] } }
]
}
